{
  "features": [
    {
      "geometry": {
        "coordinates": [
          37.624445,
          55.748444
        ],
        "type": "Point"
      },
      "properties": {
        "NAME": "Комплекс фото-видеофиксации нарушений ПДД",
        "ADDRESS": "Большой Москворецкий мост, опора МГО б/н.",
        "X": "37.624445",
        "Y": "55.748444",
        "NAPRAVLENIE": "к Софийской наб.",
        "USLSPEED": "Скорость",
        "GLOBALID": "87482439"
      },
      "type": "Feature"
    },
    {
      "geometry": {
        "coordinates": [
          37.525114,
          55.592658
        ],
        "type": "Point"
      },
      "properties": {
        "NAME": "Комплекс фото-видеофиксации нарушений ПДД",
        "ADDRESS": "проезд Карамзина - МКАД",
        "X": "37.525114",
        "Y": "55.592658",
        "NAPRAVLENIE": "внутренняя сторона МКАД",
        "USLSPEED": "Контроль база",
        "GLOBALID": "87482592"
      },
      "type": "Feature"
    },
    {
      "geometry": {
        "coordinates": [
          37.474303,
          55.688294
        ],
        "type": "Point"
      },
      "properties": {
        "NAME": "Комплекс фото-видеофиксации нарушений ПДД",
        "ADDRESS": "улица Лобачевского, д.108, к Рублевскому шоссе",
        "X": "37.474303",
        "Y": "55.688294",
        "NAPRAVLENIE": "к Рублевскому ш.",
        "USLSPEED": "Выделенная полоса",
        "GLOBALID": "87482664"
      },
      "type": "Feature"
    },
    {
      "geometry": {
        "coordinates": [
          37.494022,
          55.823497
        ],
        "type": "Point"
      },
      "properties": {
        "NAME": "Комплекс фото-видеофиксации нарушений ПДД",
        "ADDRESS": "Ленинградское шоссе, д.17",
        "X": "37.494022",
        "Y": "55.823497",
        "NAPRAVLENIE": "в центр",
        "USLSPEED": "Выделенная полоса",
        "GLOBALID": "87482631"
      },
      "type": "Feature"
    },
    {
      "geometry": {
        "coordinates": [
          37.600722,
          55.605715
        ],
        "type": "Point"
      },
      "properties": {
        "NAME": "Комплекс фото-видеофиксации нарушений ПДД",
        "ADDRESS": "Кировоградская улица, д.19, корп.1",
        "X": "37.600722",
        "Y": "55.605715",
        "NAPRAVLENIE": "из центра",
        "USLSPEED": "Скорость",
        "GLOBALID": "87482605"
      },
      "type": "Feature"
    },
    {
      "geometry": {
        "coordinates": [
          37.671464,
          55.676633
        ],
        "type": "Point"
      },
      "properties": {
        "NAME": "Комплекс фото-видеофиксации нарушений ПДД",
        "ADDRESS": "улица Паперника, напротив д.18",
        "X": "37.671464",
        "Y": "55.676633",
        "NAPRAVLENIE": "от Рязанского пр-та",
        "USLSPEED": "Контроль база",
        "GLOBALID": "87482769"
      },
      "type": "Feature"
    },
    {
      "geometry": {
        "coordinates": [
          37.589869,
          55.79065
        ],
        "type": "Point"
      },
      "properties": {
        "NAME": "Комплекс фото-видеофиксации нарушений ПДД",
        "ADDRESS": "Новослободская улица, д.73 стр.1",
        "X": "37.589869",
        "Y": "55.79065",
        "NAPRAVLENIE": "в центр",
        "USLSPEED": "Выделенная полоса",
        "GLOBALID": "87815106"
      },
      "type": "Feature"
    },
    {
      "geometry": {
        "coordinates": [
          37.772933,
          55.808033
        ],
        "type": "Point"
      },
      "properties": {
        "NAME": "Комплекс фото-видеофиксации нарушений ПДД",
        "ADDRESS": "Щёлковское шоссе, д.23",
        "X": "37.772933",
        "Y": "55.808033",
        "NAPRAVLENIE": "в центр",
        "USLSPEED": "Выделенная полоса",
        "GLOBALID": "87482924"
      },
      "type": "Feature"
    },
    {
      "geometry": {
        "coordinates": [
          37.676442,
          55.587193
        ],
        "type": "Point"
      },
      "properties": {
        "NAME": "Комплекс фото-видеофиксации нарушений ПДД",
        "ADDRESS": "Липецкая улица, д.34/25",
        "X": "37.676442",
        "Y": "55.587193",
        "NAPRAVLENIE": "из центра",
        "USLSPEED": "Выделенная полоса",
        "GLOBALID": "87482656"
      },
      "type": "Feature"
    },
    {
      "geometry": {
        "coordinates": [
          37.518622,
          55.777448
        ],
        "type": "Point"
      },
      "properties": {
        "NAME": "Комплекс фото-видеофиксации нарушений ПДД",
        "ADDRESS": "Хорошёвское шоссе, д.86",
        "X": "37.518622",
        "Y": "55.777448",
        "NAPRAVLENIE": "из центра",
        "USLSPEED": "Скорость",
        "GLOBALID": "87482913"
      },
      "type": "Feature"
    },
    {
      "geometry": {
        "coordinates": [
          37.5701,
          55.742472
        ],
        "type": "Point"
      },
      "properties": {
        "NAME": "Комплекс фото-видеофиксации нарушений ПДД",
        "ADDRESS": "Бережковская набережная, д.2",
        "X": "37.5701",
        "Y": "55.742472",
        "NAPRAVLENIE": "из центра",
        "USLSPEED": "Выделенная полоса",
        "GLOBALID": "87482459"
      },
      "type": "Feature"
    },
    {
      "geometry": {
        "coordinates": [
          37.608138,
          55.575555
        ],
        "type": "Point"
      },
      "properties": {
        "NAME": "Комплекс фото-видеофиксации нарушений ПДД",
        "ADDRESS": "МКАД, 32 км, МГО № 357, Чертаново Южное (ЮАО) р-н",
        "X": "37.608138",
        "Y": "55.575555",
        "NAPRAVLENIE": "внутреннее кольцо МКАД",
        "USLSPEED": "Контроль база",
        "GLOBALID": "87815092"
      },
      "type": "Feature"
    },
    {
      "geometry": {
        "coordinates": [
          37.499219,
          55.679632
        ],
        "type": "Point"
      },
      "properties": {
        "NAME": "Комплекс фото-видеофиксации нарушений ПДД",
        "ADDRESS": "улица Удальцова, д.79",
        "X": "37.499219",
        "Y": "55.679632",
        "NAPRAVLENIE": "к Вернадского пр-ту",
        "USLSPEED": "Контроль база",
        "GLOBALID": "87482900"
      },
      "type": "Feature"
    },
    {
      "geometry": {
        "coordinates": [
          37.381926,
          55.720707
        ],
        "type": "Point"
      },
      "properties": {
        "NAME": "Комплекс фото-видеофиксации нарушений ПДД",
        "ADDRESS": "улица Горбунова - МКАД",
        "X": "37.381926",
        "Y": "55.720707",
        "NAPRAVLENIE": "внутренняя сторона МКАД",
        "USLSPEED": "Контроль база",
        "GLOBALID": "87482552"
      },
      "type": "Feature"
    },
    {
      "geometry": {
        "coordinates": [
          37.4833,
          55.689206
        ],
        "type": "Point"
      },
      "properties": {
        "NAME": "Комплекс фото-видеофиксации нарушений ПДД",
        "ADDRESS": "Мичуринский проспект, напротив д.45 А, МГТ № 162",
        "X": "37.4833",
        "Y": "55.689206",
        "NAPRAVLENIE": "из центра",
        "USLSPEED": "Выделенная полоса+скорость",
        "GLOBALID": "87482702"
      },
      "type": "Feature"
    },
    {
      "geometry": {
        "coordinates": [
          37.567578,
          55.582473
        ],
        "type": "Point"
      },
      "properties": {
        "NAME": "Комплекс фото-видеофиксации нарушений ПДД",
        "ADDRESS": "улица Поляны - МКАД",
        "X": "37.567578",
        "Y": "55.582473",
        "NAPRAVLENIE": "внутренняя сторона МКАД",
        "USLSPEED": "Контроль база+скорость",
        "GLOBALID": "87482774"
      },
      "type": "Feature"
    },
    {
      "geometry": {
        "coordinates": [
          37.663578,
          55.778536
        ],
        "type": "Point"
      },
      "properties": {
        "NAME": "Комплекс фото-видеофиксации нарушений ПДД",
        "ADDRESS": "Краснопрудная улица, д.1",
        "X": "37.663578",
        "Y": "55.778536",
        "NAPRAVLENIE": "в центр",
        "USLSPEED": "Скорость",
        "GLOBALID": "87482619"
      },
      "type": "Feature"
    },
    {
      "geometry": {
        "coordinates": [
          37.489245,
          55.65846
        ],
        "type": "Point"
      },
      "properties": {
        "NAME": "Комплекс фото-видеофиксации нарушений ПДД",
        "ADDRESS": "улица 26-ти Бакинских Комиссаров, д.3, корп.1",
        "X": "37.489245",
        "Y": "55.65846",
        "NAPRAVLENIE": "к Ленинскому пр-ту",
        "USLSPEED": "Контроль база",
        "GLOBALID": "87476400"
      },
      "type": "Feature"
    },
    {
      "geometry": {
        "coordinates": [
          37.390933,
          55.816565
        ],
        "type": "Point"
      },
      "properties": {
        "NAME": "Комплекс фото-видеофиксации нарушений ПДД",
        "ADDRESS": "улица Маршала Катукова - МКАД",
        "X": "37.390933",
        "Y": "55.816565",
        "NAPRAVLENIE": "внутренняя сторона МКАД",
        "USLSPEED": "Контроль база+скорость",
        "GLOBALID": "87482691"
      },
      "type": "Feature"
    },
    {
      "geometry": {
        "coordinates": [
          37.738594,
          55.613709
        ],
        "type": "Point"
      },
      "properties": {
        "NAME": "Комплекс фото-видеофиксации нарушений ПДД",
        "ADDRESS": "Ореховый бульвар, д.39, корп.1",
        "X": "37.738594",
        "Y": "55.613709",
        "NAPRAVLENIE": "к Каширскому ш.",
        "USLSPEED": "Скорость",
        "GLOBALID": "87482759"
      },
      "type": "Feature"
    },
    {
      "geometry": {
        "coordinates": [
          37.839338,
          55.720838
        ],
        "type": "Point"
      },
      "properties": {
        "NAME": "Комплекс фото-видеофиксации нарушений ПДД",
        "ADDRESS": "улица Молдагуловой - МКАД",
        "X": "37.839338",
        "Y": "55.720838",
        "NAPRAVLENIE": "внутренняя сторона МКАД",
        "USLSPEED": "Контроль база",
        "GLOBALID": "87482713"
      },
      "type": "Feature"
    },
    {
      "geometry": {
        "coordinates": [
          37.578702,
          55.699375
        ],
        "type": "Point"
      },
      "properties": {
        "NAME": "Комплекс фото-видеофиксации нарушений ПДД",
        "ADDRESS": "проспект 60-летия Октября, д.8 А",
        "X": "37.578702",
        "Y": "55.699375",
        "NAPRAVLENIE": "в центр",
        "USLSPEED": "Контроль База",
        "GLOBALID": "87815012"
      },
      "type": "Feature"
    },
    {
      "geometry": {
        "coordinates": [
          37.488009,
          55.614938
        ],
        "type": "Point"
      },
      "properties": {
        "NAME": "Комплекс фото-видеофиксации нарушений ПДД",
        "ADDRESS": "Профсоюзная улица - МКАД",
        "X": "37.488009",
        "Y": "55.614938",
        "NAPRAVLENIE": "внутренняя сторона МКАД",
        "USLSPEED": "Контроль база+скорость",
        "GLOBALID": "87482793"
      },
      "type": "Feature"
    },
    {
      "geometry": {
        "coordinates": [
          37.479408,
          55.652847
        ],
        "type": "Point"
      },
      "properties": {
        "NAME": "Комплекс фото-видеофиксации нарушений ПДД",
        "ADDRESS": "проспект Вернадского, д.127",
        "X": "37.479408",
        "Y": "55.652847",
        "NAPRAVLENIE": "из центра",
        "USLSPEED": "Выделенная полоса",
        "GLOBALID": "87482505"
      },
      "type": "Feature"
    },
    {
      "geometry": {
        "coordinates": [
          37.611744,
          55.575002
        ],
        "type": "Point"
      },
      "properties": {
        "NAME": "Комплекс фото-видеофиксации нарушений ПДД",
        "ADDRESS": "МКАД, 33 км, МГО № 351",
        "X": "37.611744",
        "Y": "55.575002",
        "NAPRAVLENIE": "внешнее кольцо МКАД",
        "USLSPEED": "Контроль база",
        "GLOBALID": "87815093"
      },
      "type": "Feature"
    },
    {
      "geometry": {
        "coordinates": [
          37.640077,
          55.704323
        ],
        "type": "Point"
      },
      "properties": {
        "NAME": "Комплекс фото-видеофиксации нарушений ПДД",
        "ADDRESS": "ТТК, МГО № 1063, Автозаводская улица, д.23, корп.12",
        "X": "37.640077",
        "Y": "55.704323",
        "NAPRAVLENIE": "внешнее кольцо ТТК",
        "USLSPEED": "Контроль база",
        "GLOBALID": "87815127"
      },
      "type": "Feature"
    },
    {
      "geometry": {
        "coordinates": [
          37.841611,
          55.739593
        ],
        "type": "Point"
      },
      "properties": {
        "NAME": "Комплекс фото-видеофиксации нарушений ПДД",
        "ADDRESS": "улица Николая Старостина - МКАД",
        "X": "37.841611",
        "Y": "55.739593",
        "NAPRAVLENIE": "внутренняя сторона МКАД",
        "USLSPEED": "Контроль база",
        "GLOBALID": "87482736"
      },
      "type": "Feature"
    },
    {
      "geometry": {
        "coordinates": [
          37.512439,
          55.752379
        ],
        "type": "Point"
      },
      "properties": {
        "NAME": "Комплекс фото-видеофиксации нарушений ПДД",
        "ADDRESS": "Большая Филевская улица, Шелепихинский мост",
        "X": "37.512439",
        "Y": "55.752379",
        "NAPRAVLENIE": "из центра",
        "USLSPEED": "Скорость",
        "GLOBALID": "87482446"
      },
      "type": "Feature"
    },
    {
      "geometry": {
        "coordinates": [
          37.560338,
          55.721525
        ],
        "type": "Point"
      },
      "properties": {
        "NAME": "Комплекс фото-видеофиксации нарушений ПДД",
        "ADDRESS": "улица Хамовнический Вал, МГО № 70",
        "X": "37.560338",
        "Y": "55.721525",
        "NAPRAVLENIE": "к Лужнецкому пр-ду",
        "USLSPEED": "Скорость",
        "GLOBALID": "87482909"
      },
      "type": "Feature"
    },
    {
      "geometry": {
        "coordinates": [
          37.494588,
          55.612508
        ],
        "type": "Point"
      },
      "properties": {
        "NAME": "Комплекс фото-видеофиксации нарушений ПДД",
        "ADDRESS": "Профсоюзная улица - МКАД",
        "X": "37.494588",
        "Y": "55.612508",
        "NAPRAVLENIE": "в центр",
        "USLSPEED": "Контроль база",
        "GLOBALID": "87482792"
      },
      "type": "Feature"
    },
    {
      "geometry": {
        "coordinates": [
          37.575856,
          55.660889
        ],
        "type": "Point"
      },
      "properties": {
        "NAME": "Комплекс фото-видеофиксации нарушений ПДД",
        "ADDRESS": "Севастопольский проспект, д.63/20",
        "X": "37.575856",
        "Y": "55.660889",
        "NAPRAVLENIE": "в центр",
        "USLSPEED": "Выделенная полоса",
        "GLOBALID": "87482857"
      },
      "type": "Feature"
    },
    {
      "geometry": {
        "coordinates": [
          37.683049,
          55.789968
        ],
        "type": "Point"
      },
      "properties": {
        "NAME": "Комплекс фото-видеофиксации нарушений ПДД",
        "ADDRESS": "улица Стромынка, у д.1 по улице Барболина",
        "X": "37.683049",
        "Y": "55.789968",
        "NAPRAVLENIE": "из центра",
        "USLSPEED": "Контроль база",
        "GLOBALID": "87482890"
      },
      "type": "Feature"
    },
    {
      "geometry": {
        "coordinates": [
          37.688578,
          55.770665
        ],
        "type": "Point"
      },
      "properties": {
        "NAME": "Комплекс фото-видеофиксации нарушений ПДД",
        "ADDRESS": "Госпитальный переулок, д.4/6",
        "X": "37.688578",
        "Y": "55.770665",
        "NAPRAVLENIE": "в центр",
        "USLSPEED": "Проезд грузового транспорта",
        "GLOBALID": "87482554"
      },
      "type": "Feature"
    },
    {
      "geometry": {
        "coordinates": [
          37.586828,
          55.898972
        ],
        "type": "Point"
      },
      "properties": {
        "NAME": "Комплекс фото-видеофиксации нарушений ПДД",
        "ADDRESS": "Алтуфьевское шоссе, д.93",
        "X": "37.586828",
        "Y": "55.898972",
        "NAPRAVLENIE": "в центр",
        "USLSPEED": "Выделенная полоса",
        "GLOBALID": "87482423"
      },
      "type": "Feature"
    },
    {
      "geometry": {
        "coordinates": [
          37.509528,
          55.858916
        ],
        "type": "Point"
      },
      "properties": {
        "NAME": "Комплекс фото-видеофиксации нарушений ПДД",
        "ADDRESS": "Онежская улица, д.36",
        "X": "37.509528",
        "Y": "55.858916",
        "NAPRAVLENIE": "из центра",
        "USLSPEED": "Контроль база",
        "GLOBALID": "87482758"
      },
      "type": "Feature"
    },
    {
      "geometry": {
        "coordinates": [
          37.490684,
          55.772866
        ],
        "type": "Point"
      },
      "properties": {
        "NAME": "Комплекс фото-видеофиксации нарушений ПДД",
        "ADDRESS": "улица Мневники, д12, корп.1",
        "X": "37.490684",
        "Y": "55.772866",
        "NAPRAVLENIE": "из центра",
        "USLSPEED": "Контроль База + скорость",
        "GLOBALID": "87815098"
      },
      "type": "Feature"
    },
    {
      "geometry": {
        "coordinates": [
          37.542572,
          55.890142
        ],
        "type": "Point"
      },
      "properties": {
        "NAME": "Комплекс фото-видеофиксации нарушений ПДД",
        "ADDRESS": "Дмитровское шоссе, д.133, стр.1",
        "X": "37.542572",
        "Y": "55.890142",
        "NAPRAVLENIE": "в центр",
        "USLSPEED": "Скорость",
        "GLOBALID": "87482564"
      },
      "type": "Feature"
    },
    {
      "geometry": {
        "coordinates": [
          37.39197,
          55.714648
        ],
        "type": "Point"
      },
      "properties": {
        "NAME": "Комплекс фото-видеофиксации нарушений ПДД",
        "ADDRESS": "Можайское шоссе - МКАД",
        "X": "37.39197",
        "Y": "55.714648",
        "NAPRAVLENIE": "в центр",
        "USLSPEED": "Контроль база",
        "GLOBALID": "87482706"
      },
      "type": "Feature"
    },
    {
      "geometry": {
        "coordinates": [
          37.428345,
          55.825906
        ],
        "type": "Point"
      },
      "properties": {
        "NAME": "Комплекс фото-видеофиксации нарушений ПДД",
        "ADDRESS": "Волоколамское шоссе, д.104",
        "X": "37.428345",
        "Y": "55.825906",
        "NAPRAVLENIE": "из центра",
        "USLSPEED": "Выделенная полоса + скорость",
        "GLOBALID": "87815040"
      },
      "type": "Feature"
    },
    {
      "geometry": {
        "coordinates": [
          37.697865,
          55.738242
        ],
        "type": "Point"
      },
      "properties": {
        "NAME": "Комплекс фото-видеофиксации нарушений ПДД",
        "ADDRESS": "ТТК, МГО № 1495, Нижегородская эстакада",
        "X": "37.697865",
        "Y": "55.738242",
        "NAPRAVLENIE": "внешнее кольцо ТТК",
        "USLSPEED": "Контроль база",
        "GLOBALID": "87815140"
      },
      "type": "Feature"
    },
    {
      "geometry": {
        "coordinates": [
          37.647056,
          55.683975
        ],
        "type": "Point"
      },
      "properties": {
        "NAME": "Комплекс фото-видеофиксации нарушений ПДД",
        "ADDRESS": "Нагатинская набережная, напротив д.12, корп.2",
        "X": "37.647056",
        "Y": "55.683975",
        "NAPRAVLENIE": "в центр",
        "USLSPEED": "Скорость",
        "GLOBALID": "87482727"
      },
      "type": "Feature"
    },
    {
      "geometry": {
        "coordinates": [
          37.684297,
          55.746786
        ],
        "type": "Point"
      },
      "properties": {
        "NAME": "Комплекс фото-видеофиксации нарушений ПДД",
        "ADDRESS": "бульвар Энтузиастов, опора МГТ № 12",
        "X": "37.684297",
        "Y": "55.746786",
        "NAPRAVLENIE": "из центра",
        "USLSPEED": "Выделенная полоса",
        "GLOBALID": "87482930"
      },
      "type": "Feature"
    },
    {
      "geometry": {
        "coordinates": [
          37.377753,
          55.795207
        ],
        "type": "Point"
      },
      "properties": {
        "NAME": "Комплекс фото-видеофиксации нарушений ПДД",
        "ADDRESS": "проспект Маршала Жукова - МКАД",
        "X": "37.377753",
        "Y": "55.795207",
        "NAPRAVLENIE": "внутренняя сторона МКАД",
        "USLSPEED": "Контроль база+скорость",
        "GLOBALID": "87482686"
      },
      "type": "Feature"
    },
    {
      "geometry": {
        "coordinates": [
          37.38107,
          55.788006
        ],
        "type": "Point"
      },
      "properties": {
        "NAME": "Комплекс фото-видеофиксации нарушений ПДД",
        "ADDRESS": "проспект Маршала Жукова - МКАД",
        "X": "37.38107",
        "Y": "55.788006",
        "NAPRAVLENIE": "в центр",
        "USLSPEED": "Контроль база+скорость",
        "GLOBALID": "87482684"
      },
      "type": "Feature"
    },
    {
      "geometry": {
        "coordinates": [
          37.537772,
          55.694328
        ],
        "type": "Point"
      },
      "properties": {
        "NAME": "Комплекс фото-видеофиксации нарушений ПДД",
        "ADDRESS": "проспект Вернадского, МГТ № 84",
        "X": "37.537772",
        "Y": "55.694328",
        "NAPRAVLENIE": "из центра",
        "USLSPEED": "Выделенная полоса",
        "GLOBALID": "87482503"
      },
      "type": "Feature"
    },
    {
      "geometry": {
        "coordinates": [
          37.636626,
          55.664195
        ],
        "type": "Point"
      },
      "properties": {
        "NAME": "Комплекс фото-видеофиксации нарушений ПДД",
        "ADDRESS": "Коломенский проезд, д.19, корп.2",
        "X": "37.636626",
        "Y": "55.664195",
        "NAPRAVLENIE": "к Каширскому ш.",
        "USLSPEED": "Контроль база",
        "GLOBALID": "87482606"
      },
      "type": "Feature"
    },
    {
      "geometry": {
        "coordinates": [
          37.661844,
          55.729174
        ],
        "type": "Point"
      },
      "properties": {
        "NAME": "Комплекс фото-видеофиксации нарушений ПДД",
        "ADDRESS": "Новоспасский проезд. ( напротив д.24 по улице Крутицкий вал)",
        "X": "37.661844",
        "Y": "55.729174",
        "NAPRAVLENIE": "в центр",
        "USLSPEED": "Выделенная полоса",
        "GLOBALID": "87815107"
      },
      "type": "Feature"
    },
    {
      "geometry": {
        "coordinates": [
          37.365016,
          55.772065
        ],
        "type": "Point"
      },
      "properties": {
        "NAME": "Комплекс фото-видеофиксации нарушений ПДД",
        "ADDRESS": "Рублевское шоссе - МКАД",
        "X": "37.365016",
        "Y": "55.772065",
        "NAPRAVLENIE": "из центра",
        "USLSPEED": "Контроль база",
        "GLOBALID": "87482825"
      },
      "type": "Feature"
    },
    {
      "geometry": {
        "coordinates": [
          37.422414,
          55.878753
        ],
        "type": "Point"
      },
      "properties": {
        "NAME": "Комплекс фото-видеофиксации нарушений ПДД",
        "ADDRESS": "улица Свободы - МКАД",
        "X": "37.422414",
        "Y": "55.878753",
        "NAPRAVLENIE": "из центра",
        "USLSPEED": "Контроль база+скорость",
        "GLOBALID": "87482850"
      },
      "type": "Feature"
    },
    {
      "geometry": {
        "coordinates": [
          37.750408,
          55.633486
        ],
        "type": "Point"
      },
      "properties": {
        "NAME": "Комплекс фото-видеофиксации нарушений ПДД",
        "ADDRESS": "Проектируемый проезд № 5396 напротив д.21, корп.2 по Братеевской улице",
        "X": "37.750408",
        "Y": "55.633486",
        "NAPRAVLENIE": "в центр",
        "USLSPEED": "Выделенная полоса",
        "GLOBALID": "87482784"
      },
      "type": "Feature"
    },
    {
      "geometry": {
        "coordinates": [
          37.384047,
          55.809368
        ],
        "type": "Point"
      },
      "properties": {
        "NAME": "Комплекс фото-видеофиксации нарушений ПДД",
        "ADDRESS": "Мякининский проезд - МКАД",
        "X": "37.384047",
        "Y": "55.809368",
        "NAPRAVLENIE": "из центра",
        "USLSPEED": "Контроль база",
        "GLOBALID": "87482721"
      },
      "type": "Feature"
    },
    {
      "geometry": {
        "coordinates": [
          37.649185,
          55.73806
        ],
        "type": "Point"
      },
      "properties": {
        "NAME": "Комплекс фото-видеофиксации нарушений ПДД",
        "ADDRESS": "Гончарный проезд, д.14, стр.2",
        "X": "37.649185",
        "Y": "55.73806",
        "NAPRAVLENIE": "по Народной улице",
        "USLSPEED": "Скорость",
        "GLOBALID": "87482548"
      },
      "type": "Feature"
    },
    {
      "geometry": {
        "coordinates": [
          37.448424,
          55.805473
        ],
        "type": "Point"
      },
      "properties": {
        "NAME": "Комплекс фото-видеофиксации нарушений ПДД",
        "ADDRESS": "Строгинское шоссе, опора МГО № 64",
        "X": "37.448424",
        "Y": "55.805473",
        "NAPRAVLENIE": "из центра",
        "USLSPEED": "Скорость",
        "GLOBALID": "87482886"
      },
      "type": "Feature"
    },
    {
      "geometry": {
        "coordinates": [
          37.640443,
          55.787283
        ],
        "type": "Point"
      },
      "properties": {
        "NAME": "Комплекс фото-видеофиксации нарушений ПДД",
        "ADDRESS": "Большая Переяславская улица, д.50",
        "X": "37.640443",
        "Y": "55.787283",
        "NAPRAVLENIE": "к ТТК",
        "USLSPEED": "Контроль база",
        "GLOBALID": "87482442"
      },
      "type": "Feature"
    },
    {
      "geometry": {
        "coordinates": [
          37.383223,
          55.732757
        ],
        "type": "Point"
      },
      "properties": {
        "NAME": "Комплекс фото-видеофиксации нарушений ПДД",
        "ADDRESS": "Молодогвардейская улица - МКАД",
        "X": "37.383223",
        "Y": "55.732757",
        "NAPRAVLENIE": "в центр",
        "USLSPEED": "Контроль база",
        "GLOBALID": "87482715"
      },
      "type": "Feature"
    },
    {
      "geometry": {
        "coordinates": [
          37.56956,
          55.761913
        ],
        "type": "Point"
      },
      "properties": {
        "NAME": "Комплекс фото-видеофиксации нарушений ПДД",
        "ADDRESS": "улица Красная Пресня, д.24",
        "X": "37.56956",
        "Y": "55.761913",
        "NAPRAVLENIE": "из центра",
        "USLSPEED": "Контроль база + скорость",
        "GLOBALID": "87815051"
      },
      "type": "Feature"
    },
    {
      "geometry": {
        "coordinates": [
          37.738817,
          55.676867
        ],
        "type": "Point"
      },
      "properties": {
        "NAME": "Комплекс фото-видеофиксации нарушений ПДД",
        "ADDRESS": "Люблинская улица, напротив д.65 по Батайскому проезду",
        "X": "37.738817",
        "Y": "55.676867",
        "NAPRAVLENIE": "из центра",
        "USLSPEED": "Выделенная полоса",
        "GLOBALID": "87482676"
      },
      "type": "Feature"
    },
    {
      "geometry": {
        "coordinates": [
          37.841465,
          55.778761
        ],
        "type": "Point"
      },
      "properties": {
        "NAME": "Комплекс фото-видеофиксации нарушений ПДД",
        "ADDRESS": "шоссе Энтузиастов - МКАД",
        "X": "37.841465",
        "Y": "55.778761",
        "NAPRAVLENIE": "из центра",
        "USLSPEED": "Контроль база",
        "GLOBALID": "87482934"
      },
      "type": "Feature"
    },
    {
      "geometry": {
        "coordinates": [
          37.555603,
          55.642939
        ],
        "type": "Point"
      },
      "properties": {
        "NAME": "Комплекс фото-видеофиксации нарушений ПДД",
        "ADDRESS": "Севастопольский проспект, МГТ № 178",
        "X": "37.555603",
        "Y": "55.642939",
        "NAPRAVLENIE": "из центра",
        "USLSPEED": "Скорость",
        "GLOBALID": "87482859"
      },
      "type": "Feature"
    },
    {
      "geometry": {
        "coordinates": [
          37.551781,
          55.667718
        ],
        "type": "Point"
      },
      "properties": {
        "NAME": "Комплекс фото-видеофиксации нарушений ПДД",
        "ADDRESS": "Профсоюзная улица, д.60, корп.2",
        "X": "37.551781",
        "Y": "55.667718",
        "NAPRAVLENIE": "из центра",
        "USLSPEED": "Выделенная полоса",
        "GLOBALID": "87482802"
      },
      "type": "Feature"
    },
    {
      "geometry": {
        "coordinates": [
          37.435569,
          55.658952
        ],
        "type": "Point"
      },
      "properties": {
        "NAME": "Комплекс фото-видеофиксации нарушений ПДД",
        "ADDRESS": "Боровское шоссе - МКАД",
        "X": "37.435569",
        "Y": "55.658952",
        "NAPRAVLENIE": "внутренняя сторона МКАД",
        "USLSPEED": "Контроль база+скорость",
        "GLOBALID": "87482472"
      },
      "type": "Feature"
    },
    {
      "geometry": {
        "coordinates": [
          37.693858,
          55.894751
        ],
        "type": "Point"
      },
      "properties": {
        "NAME": "Комплекс фото-видеофиксации нарушений ПДД",
        "ADDRESS": "МКАД, 92 км, МГО № 268",
        "X": "37.693858",
        "Y": "55.894751",
        "NAPRAVLENIE": "внешнее кольцо МКАД",
        "USLSPEED": "Контроль база",
        "GLOBALID": "87815085"
      },
      "type": "Feature"
    },
    {
      "geometry": {
        "coordinates": [
          37.3749,
          55.846792
        ],
        "type": "Point"
      },
      "properties": {
        "NAME": "Комплекс фото-видеофиксации нарушений ПДД",
        "ADDRESS": "Пятницкое шоссе, МГО № 86 (д.24)",
        "X": "37.3749",
        "Y": "55.846792",
        "NAPRAVLENIE": "из центра",
        "USLSPEED": "Выделенная полоса + скорость",
        "GLOBALID": "87815116"
      },
      "type": "Feature"
    },
    {
      "geometry": {
        "coordinates": [
          37.516828,
          55.682933
        ],
        "type": "Point"
      },
      "properties": {
        "NAME": "Комплекс фото-видеофиксации нарушений ПДД",
        "ADDRESS": "проспект Вернадского, д.25 дублер, МГТ № 184",
        "X": "37.516828",
        "Y": "55.682933",
        "NAPRAVLENIE": "из центра",
        "USLSPEED": "Выделенная полоса",
        "GLOBALID": "87482506"
      },
      "type": "Feature"
    },
    {
      "geometry": {
        "coordinates": [
          37.586662,
          55.711362
        ],
        "type": "Point"
      },
      "properties": {
        "NAME": "Комплекс фото-видеофиксации нарушений ПДД",
        "ADDRESS": "Ленинский проспект, д.35",
        "X": "37.586662",
        "Y": "55.711362",
        "NAPRAVLENIE": "в центр",
        "USLSPEED": "Выделенная полоса",
        "GLOBALID": "87815065"
      },
      "type": "Feature"
    },
    {
      "geometry": {
        "coordinates": [
          37.495773,
          55.794729
        ],
        "type": "Point"
      },
      "properties": {
        "NAME": "Комплекс фото-видеофиксации нарушений ПДД",
        "ADDRESS": "улица Народного Ополчения, д.50",
        "X": "37.495773",
        "Y": "55.794729",
        "NAPRAVLENIE": "к Ленинградскому пр-ту",
        "USLSPEED": "Скорость",
        "GLOBALID": "87482729"
      },
      "type": "Feature"
    },
    {
      "geometry": {
        "coordinates": [
          37.613242,
          55.792483
        ],
        "type": "Point"
      },
      "properties": {
        "NAME": "Комплекс фото-видеофиксации нарушений ПДД",
        "ADDRESS": "Октябрьская улица, напротив д.42",
        "X": "37.613242",
        "Y": "55.792483",
        "NAPRAVLENIE": "в центр",
        "USLSPEED": "Проезд грузового транспорта",
        "GLOBALID": "87482755"
      },
      "type": "Feature"
    },
    {
      "geometry": {
        "coordinates": [
          37.638427,
          55.654687
        ],
        "type": "Point"
      },
      "properties": {
        "NAME": "Комплекс фото-видеофиксации нарушений ПДД",
        "ADDRESS": "улица Москворечье, д.1",
        "X": "37.638427",
        "Y": "55.654687",
        "NAPRAVLENIE": "в центр",
        "USLSPEED": "Контроль база",
        "GLOBALID": "87482718"
      },
      "type": "Feature"
    },
    {
      "geometry": {
        "coordinates": [
          37.621562,
          55.709122
        ],
        "type": "Point"
      },
      "properties": {
        "NAME": "Комплекс фото-видеофиксации нарушений ПДД",
        "ADDRESS": "Большая Тульская улица, д.13",
        "X": "37.621562",
        "Y": "55.709122",
        "NAPRAVLENIE": "в центр",
        "USLSPEED": "Скорость",
        "GLOBALID": "87815019"
      },
      "type": "Feature"
    },
    {
      "geometry": {
        "coordinates": [
          37.586545,
          55.762053
        ],
        "type": "Point"
      },
      "properties": {
        "NAME": "Комплекс фото-видеофиксации нарушений ПДД",
        "ADDRESS": "Садовая-Кудринская улица, д.9, стр.1",
        "X": "37.586545",
        "Y": "55.762053",
        "NAPRAVLENIE": "внутренняя сторона Садовое кольцо",
        "USLSPEED": "Скорость",
        "GLOBALID": "87482839"
      },
      "type": "Feature"
    },
    {
      "geometry": {
        "coordinates": [
          37.527617,
          55.738234
        ],
        "type": "Point"
      },
      "properties": {
        "NAME": "Комплекс фото-видеофиксации нарушений ПДД",
        "ADDRESS": "Кутузовский проспект, д.43",
        "X": "37.527617",
        "Y": "55.738234",
        "NAPRAVLENIE": "в центр",
        "USLSPEED": "Скорость",
        "GLOBALID": "87815054"
      },
      "type": "Feature"
    },
    {
      "geometry": {
        "coordinates": [
          37.395498,
          55.834389
        ],
        "type": "Point"
      },
      "properties": {
        "NAME": "Комплекс фото-видеофиксации нарушений ПДД",
        "ADDRESS": "Трикотажный проезд - МКАД",
        "X": "37.395498",
        "Y": "55.834389",
        "NAPRAVLENIE": "внутренняя сторона МКАД",
        "USLSPEED": "Контроль база+скорость",
        "GLOBALID": "87482896"
      },
      "type": "Feature"
    },
    {
      "geometry": {
        "coordinates": [
          37.646939,
          55.704256
        ],
        "type": "Point"
      },
      "properties": {
        "NAME": "Комплекс фото-видеофиксации нарушений ПДД",
        "ADDRESS": "улица Ленинская Слобода, д.23/14",
        "X": "37.646939",
        "Y": "55.704256",
        "NAPRAVLENIE": "в центр",
        "USLSPEED": "Проезд грузового транспорта",
        "GLOBALID": "87482636"
      },
      "type": "Feature"
    },
    {
      "geometry": {
        "coordinates": [
          37.455575,
          55.706653
        ],
        "type": "Point"
      },
      "properties": {
        "NAME": "Комплекс фото-видеофиксации нарушений ПДД",
        "ADDRESS": "Аминьевское шоссе, д.14, корп.1",
        "X": "37.455575",
        "Y": "55.706653",
        "NAPRAVLENIE": "от Рублевского ш.",
        "USLSPEED": "Выделенная полоса",
        "GLOBALID": "87482428"
      },
      "type": "Feature"
    },
    {
      "geometry": {
        "coordinates": [
          37.671472,
          55.882422
        ],
        "type": "Point"
      },
      "properties": {
        "NAME": "Комплекс фото-видеофиксации нарушений ПДД",
        "ADDRESS": "Енисейская улица, д.21",
        "X": "37.671472",
        "Y": "55.882422",
        "NAPRAVLENIE": "из центра",
        "USLSPEED": "Скорость",
        "GLOBALID": "87482579"
      },
      "type": "Feature"
    },
    {
      "geometry": {
        "coordinates": [
          37.691178,
          55.755058
        ],
        "type": "Point"
      },
      "properties": {
        "NAME": "Комплекс фото-видеофиксации нарушений ПДД",
        "ADDRESS": "улица Золоторожский Вал, д.4, стр.4",
        "X": "37.691178",
        "Y": "55.755058",
        "NAPRAVLENIE": "в центр",
        "USLSPEED": "Проезд грузового транспорта",
        "GLOBALID": "87482587"
      },
      "type": "Feature"
    },
    {
      "geometry": {
        "coordinates": [
          37.544459,
          55.911112
        ],
        "type": "Point"
      },
      "properties": {
        "NAME": "Комплекс фото-видеофиксации нарушений ПДД",
        "ADDRESS": "Дмитровское шоссе - МКАД",
        "X": "37.544459",
        "Y": "55.911112",
        "NAPRAVLENIE": "из центра",
        "USLSPEED": "Контроль база",
        "GLOBALID": "87482560"
      },
      "type": "Feature"
    },
    {
      "geometry": {
        "coordinates": [
          37.659906,
          55.731581
        ],
        "type": "Point"
      },
      "properties": {
        "NAME": "Комплекс фото-видеофиксации нарушений ПДД",
        "ADDRESS": "Новоспасский проезд, напротив д.9, стр.1 по улице Динамовская",
        "X": "37.659906",
        "Y": "55.731581",
        "NAPRAVLENIE": "из центра",
        "USLSPEED": "Выделенная полоса",
        "GLOBALID": "87482747"
      },
      "type": "Feature"
    },
    {
      "geometry": {
        "coordinates": [
          37.400964,
          55.70359
        ],
        "type": "Point"
      },
      "properties": {
        "NAME": "Комплекс фото-видеофиксации нарушений ПДД",
        "ADDRESS": "Сколковское шоссе - МКАД",
        "X": "37.400964",
        "Y": "55.70359",
        "NAPRAVLENIE": "в центр",
        "USLSPEED": "Контроль база",
        "GLOBALID": "87482868"
      },
      "type": "Feature"
    },
    {
      "geometry": {
        "coordinates": [
          37.444914,
          55.868874
        ],
        "type": "Point"
      },
      "properties": {
        "NAME": "Комплекс фото-видеофиксации нарушений ПДД",
        "ADDRESS": "улица Свободы, д.93, корп.1, МГО № 261",
        "X": "37.444914",
        "Y": "55.868874",
        "NAPRAVLENIE": "в центр",
        "USLSPEED": "Скорость",
        "GLOBALID": "87482852"
      },
      "type": "Feature"
    },
    {
      "geometry": {
        "coordinates": [
          37.458858,
          55.779353
        ],
        "type": "Point"
      },
      "properties": {
        "NAME": "Комплекс фото-видеофиксации нарушений ПДД",
        "ADDRESS": "проспект Маршала Жукова, д.59",
        "X": "37.458858",
        "Y": "55.779353",
        "NAPRAVLENIE": "в центр",
        "USLSPEED": "Скорость",
        "GLOBALID": "87482687"
      },
      "type": "Feature"
    },
    {
      "geometry": {
        "coordinates": [
          37.663829,
          55.720654
        ],
        "type": "Point"
      },
      "properties": {
        "NAME": "Комплекс фото-видеофиксации нарушений ПДД",
        "ADDRESS": "улица Симоновский Вал, д.19",
        "X": "37.663829",
        "Y": "55.720654",
        "NAPRAVLENIE": "в центр",
        "USLSPEED": "Выделенная полоса",
        "GLOBALID": "87482867"
      },
      "type": "Feature"
    },
    {
      "geometry": {
        "coordinates": [
          37.38454,
          55.716942
        ],
        "type": "Point"
      },
      "properties": {
        "NAME": "Комплекс фото-видеофиксации нарушений ПДД",
        "ADDRESS": "Можайское шоссе - МКАД",
        "X": "37.38454",
        "Y": "55.716942",
        "NAPRAVLENIE": "внутренняя сторона МКАД",
        "USLSPEED": "Контроль база",
        "GLOBALID": "87482707"
      },
      "type": "Feature"
    },
    {
      "geometry": {
        "coordinates": [
          37.815594,
          55.641013
        ],
        "type": "Point"
      },
      "properties": {
        "NAME": "Комплекс фото-видеофиксации нарушений ПДД",
        "ADDRESS": "Проектируемый проезд № 5175-МКАД",
        "X": "37.815594",
        "Y": "55.641013",
        "NAPRAVLENIE": "в центр",
        "USLSPEED": "Контроль база",
        "GLOBALID": "87482781"
      },
      "type": "Feature"
    },
    {
      "geometry": {
        "coordinates": [
          37.463867,
          55.635547
        ],
        "type": "Point"
      },
      "properties": {
        "NAME": "Комплекс фото-видеофиксации нарушений ПДД",
        "ADDRESS": "МКАД, 43 км, МГО № 221",
        "X": "37.463867",
        "Y": "55.635547",
        "NAPRAVLENIE": "внутреннее кольцо МКАД",
        "USLSPEED": "Контроль база",
        "GLOBALID": "87815094"
      },
      "type": "Feature"
    },
    {
      "geometry": {
        "coordinates": [
          37.597527,
          55.572209
        ],
        "type": "Point"
      },
      "properties": {
        "NAME": "Комплекс фото-видеофиксации нарушений ПДД",
        "ADDRESS": "Варшавское шоссе - МКАД",
        "X": "37.597527",
        "Y": "55.572209",
        "NAPRAVLENIE": "из центра",
        "USLSPEED": "Контроль база+скорость",
        "GLOBALID": "87482490"
      },
      "type": "Feature"
    },
    {
      "geometry": {
        "coordinates": [
          37.674796,
          55.730004
        ],
        "type": "Point"
      },
      "properties": {
        "NAME": "Комплекс фото-видеофиксации нарушений ПДД",
        "ADDRESS": "Волгоградский проспект, д.10, стр.2",
        "X": "37.674796",
        "Y": "55.730004",
        "NAPRAVLENIE": "из центра",
        "USLSPEED": "Скорость",
        "GLOBALID": "87482519"
      },
      "type": "Feature"
    },
    {
      "geometry": {
        "coordinates": [
          37.5306,
          55.648034
        ],
        "type": "Point"
      },
      "properties": {
        "NAME": "Комплекс фото-видеофиксации нарушений ПДД",
        "ADDRESS": "Профсоюзная улица, МГТ № 180",
        "X": "37.5306",
        "Y": "55.648034",
        "NAPRAVLENIE": "из центра",
        "USLSPEED": "Выделенная полоса",
        "GLOBALID": "87482808"
      },
      "type": "Feature"
    },
    {
      "geometry": {
        "coordinates": [
          37.392742,
          55.654006
        ],
        "type": "Point"
      },
      "properties": {
        "NAME": "Комплекс фото-видеофиксации нарушений ПДД",
        "ADDRESS": "Боровское шоссе, д.3, по Боровскому проезду",
        "X": "37.392742",
        "Y": "55.654006",
        "NAPRAVLENIE": "из центра",
        "USLSPEED": "Выделенная полоса+скорость",
        "GLOBALID": "87482480"
      },
      "type": "Feature"
    },
    {
      "geometry": {
        "coordinates": [
          37.617355,
          55.872016
        ],
        "type": "Point"
      },
      "properties": {
        "NAME": "Комплекс фото-видеофиксации нарушений ПДД",
        "ADDRESS": "Юрловский проезд, д.17",
        "X": "37.617355",
        "Y": "55.872016",
        "NAPRAVLENIE": "к северному б-ру",
        "USLSPEED": "Контроль база",
        "GLOBALID": "87482940"
      },
      "type": "Feature"
    },
    {
      "geometry": {
        "coordinates": [
          37.577669,
          55.521993
        ],
        "type": "Point"
      },
      "properties": {
        "NAME": "Комплекс фото-видеофиксации нарушений ПДД",
        "ADDRESS": "Варшавское шоссе, 3-я опора МГО до разворота у 1-ого мкр-на Щербинку",
        "X": "37.577669",
        "Y": "55.521993",
        "NAPRAVLENIE": "из центра",
        "USLSPEED": "Выделенная полоса",
        "GLOBALID": "87482494"
      },
      "type": "Feature"
    },
    {
      "geometry": {
        "coordinates": [
          37.584497,
          55.865364
        ],
        "type": "Point"
      },
      "properties": {
        "NAME": "Комплекс фото-видеофиксации нарушений ПДД",
        "ADDRESS": "Алтуфьевское шоссе, д.28",
        "X": "37.584497",
        "Y": "55.865364",
        "NAPRAVLENIE": "из центра",
        "USLSPEED": "Выделенная полоса",
        "GLOBALID": "87482416"
      },
      "type": "Feature"
    },
    {
      "geometry": {
        "coordinates": [
          37.673315,
          55.6351
        ],
        "type": "Point"
      },
      "properties": {
        "NAME": "Комплекс фото-видеофиксации нарушений ПДД",
        "ADDRESS": "Кавказский бульвар, д.1/1, корп.1",
        "X": "37.673315",
        "Y": "55.6351",
        "NAPRAVLENIE": "к Кантемировская улица",
        "USLSPEED": "Контроль база",
        "GLOBALID": "87482588"
      },
      "type": "Feature"
    },
    {
      "geometry": {
        "coordinates": [
          37.369194,
          55.761452
        ],
        "type": "Point"
      },
      "properties": {
        "NAME": "Комплекс фото-видеофиксации нарушений ПДД",
        "ADDRESS": "Рублево-Успенское шоссе - МКАД",
        "X": "37.369194",
        "Y": "55.761452",
        "NAPRAVLENIE": "внутренняя сторона МКАД",
        "USLSPEED": "Контроль база+скорость",
        "GLOBALID": "87482820"
      },
      "type": "Feature"
    },
    {
      "geometry": {
        "coordinates": [
          37.762955,
          55.606968
        ],
        "type": "Point"
      },
      "properties": {
        "NAME": "Комплекс фото-видеофиксации нарушений ПДД",
        "ADDRESS": "МКАД, 22 км, МГО № 082",
        "X": "37.762955",
        "Y": "55.606968",
        "NAPRAVLENIE": "внешнее кольцо МКАД",
        "USLSPEED": "Контроль база",
        "GLOBALID": "87815090"
      },
      "type": "Feature"
    },
    {
      "geometry": {
        "coordinates": [
          37.376866,
          55.723801
        ],
        "type": "Point"
      },
      "properties": {
        "NAME": "Комплекс фото-видеофиксации нарушений ПДД",
        "ADDRESS": "улица Горбунова - МКАД",
        "X": "37.376866",
        "Y": "55.723801",
        "NAPRAVLENIE": "из центра",
        "USLSPEED": "Контроль база",
        "GLOBALID": "87482551"
      },
      "type": "Feature"
    },
    {
      "geometry": {
        "coordinates": [
          37.692357,
          55.723601
        ],
        "type": "Point"
      },
      "properties": {
        "NAME": "Комплекс фото-видеофиксации нарушений ПДД",
        "ADDRESS": "Волгоградский проспект, д.32, корп.3",
        "X": "37.692357",
        "Y": "55.723601",
        "NAPRAVLENIE": "из центра",
        "USLSPEED": "Скорость",
        "GLOBALID": "87815037"
      },
      "type": "Feature"
    },
    {
      "geometry": {
        "coordinates": [
          37.587928,
          55.787422
        ],
        "type": "Point"
      },
      "properties": {
        "NAME": "Комплекс фото-видеофиксации нарушений ПДД",
        "ADDRESS": "улица Бутырский Вал, д.52",
        "X": "37.587928",
        "Y": "55.787422",
        "NAPRAVLENIE": "в центр",
        "USLSPEED": "Проезд грузового транспорта",
        "GLOBALID": "87815025"
      },
      "type": "Feature"
    },
    {
      "geometry": {
        "coordinates": [
          37.401164,
          55.833303
        ],
        "type": "Point"
      },
      "properties": {
        "NAME": "Комплекс фото-видеофиксации нарушений ПДД",
        "ADDRESS": "Трикотажный проезд - МКАД",
        "X": "37.401164",
        "Y": "55.833303",
        "NAPRAVLENIE": "в центр",
        "USLSPEED": "Контроль база+скорость",
        "GLOBALID": "87482894"
      },
      "type": "Feature"
    },
    {
      "geometry": {
        "coordinates": [
          37.544646,
          55.587599
        ],
        "type": "Point"
      },
      "properties": {
        "NAME": "Комплекс фото-видеофиксации нарушений ПДД",
        "ADDRESS": "проезд Карамзина - МКАД",
        "X": "37.544646",
        "Y": "55.587599",
        "NAPRAVLENIE": "внутренняя сторона МКАД",
        "USLSPEED": "Контроль база",
        "GLOBALID": "87482591"
      },
      "type": "Feature"
    },
    {
      "geometry": {
        "coordinates": [
          37.556353,
          55.723889
        ],
        "type": "Point"
      },
      "properties": {
        "NAME": "Комплекс фото-видеофиксации нарушений ПДД",
        "ADDRESS": "Лужнецкий проезд, у д.38 по улице Хамовнический вал",
        "X": "37.556353",
        "Y": "55.723889",
        "NAPRAVLENIE": "в центр",
        "USLSPEED": "Проезд грузового транспорта",
        "GLOBALID": "87482669"
      },
      "type": "Feature"
    },
    {
      "geometry": {
        "coordinates": [
          37.696683,
          55.722334
        ],
        "type": "Point"
      },
      "properties": {
        "NAME": "Комплекс фото-видеофиксации нарушений ПДД",
        "ADDRESS": "Волгоградский проспект, д.35",
        "X": "37.696683",
        "Y": "55.722334",
        "NAPRAVLENIE": "в центр",
        "USLSPEED": "Скорость",
        "GLOBALID": "87815038"
      },
      "type": "Feature"
    },
    {
      "geometry": {
        "coordinates": [
          37.831729,
          55.683007
        ],
        "type": "Point"
      },
      "properties": {
        "NAME": "Комплекс фото-видеофиксации нарушений ПДД",
        "ADDRESS": "Волгоградский проспект - МКАД",
        "X": "37.831729",
        "Y": "55.683007",
        "NAPRAVLENIE": "внутренняя сторона МКАД",
        "USLSPEED": "Контроль база+скорость",
        "GLOBALID": "87482517"
      },
      "type": "Feature"
    },
    {
      "geometry": {
        "coordinates": [
          37.574909,
          55.781708
        ],
        "type": "Point"
      },
      "properties": {
        "NAME": "Комплекс фото-видеофиксации нарушений ПДД",
        "ADDRESS": "Ленинградский проспект д.22",
        "X": "37.574909",
        "Y": "55.781708",
        "NAPRAVLENIE": "из центра",
        "USLSPEED": "Выделенная полоса",
        "GLOBALID": "87815055"
      },
      "type": "Feature"
    },
    {
      "geometry": {
        "coordinates": [
          37.658604,
          55.725497
        ],
        "type": "Point"
      },
      "properties": {
        "NAME": "Комплекс фото-видеофиксации нарушений ПДД",
        "ADDRESS": "Крутицкая набережная, д.7",
        "X": "37.658604",
        "Y": "55.725497",
        "NAPRAVLENIE": "в центр",
        "USLSPEED": "Скорость",
        "GLOBALID": "87482621"
      },
      "type": "Feature"
    },
    {
      "geometry": {
        "coordinates": [
          37.537295,
          55.739121
        ],
        "type": "Point"
      },
      "properties": {
        "NAME": "Комплекс фото-видеофиксации нарушений ПДД",
        "ADDRESS": "Киевская улица, д.44/28",
        "X": "37.537295",
        "Y": "55.739121",
        "NAPRAVLENIE": "в центр",
        "USLSPEED": "Проезд грузового транспорта",
        "GLOBALID": "87482602"
      },
      "type": "Feature"
    },
    {
      "geometry": {
        "coordinates": [
          37.69837,
          55.733495
        ],
        "type": "Point"
      },
      "properties": {
        "NAME": "Комплекс фото-видеофиксации нарушений ПДД",
        "ADDRESS": "Боенский проезд, д.9",
        "X": "37.69837",
        "Y": "55.733495",
        "NAPRAVLENIE": "в центр",
        "USLSPEED": "Проезд грузового транспорта",
        "GLOBALID": "87482462"
      },
      "type": "Feature"
    },
    {
      "geometry": {
        "coordinates": [
          37.387689,
          55.834729
        ],
        "type": "Point"
      },
      "properties": {
        "NAME": "Комплекс фото-видеофиксации нарушений ПДД",
        "ADDRESS": "Пятницкое шоссе, напортив д.2",
        "X": "37.387689",
        "Y": "55.834729",
        "NAPRAVLENIE": "в центр",
        "USLSPEED": "Скорость",
        "GLOBALID": "87482817"
      },
      "type": "Feature"
    },
    {
      "geometry": {
        "coordinates": [
          37.573014,
          55.720347
        ],
        "type": "Point"
      },
      "properties": {
        "NAME": "Комплекс фото-видеофиксации нарушений ПДД",
        "ADDRESS": "Комсомольский проспект, д.45",
        "X": "37.573014",
        "Y": "55.720347",
        "NAPRAVLENIE": "в центр",
        "USLSPEED": "Контроль база + скорость",
        "GLOBALID": "87815048"
      },
      "type": "Feature"
    },
    {
      "geometry": {
        "coordinates": [
          37.584167,
          55.858547
        ],
        "type": "Point"
      },
      "properties": {
        "NAME": "Комплекс фото-видеофиксации нарушений ПДД",
        "ADDRESS": "Алтуфьевское шоссе, д.29",
        "X": "37.584167",
        "Y": "55.858547",
        "NAPRAVLENIE": "в центр",
        "USLSPEED": "Выделенная полоса",
        "GLOBALID": "87482417"
      },
      "type": "Feature"
    },
    {
      "geometry": {
        "coordinates": [
          37.540772,
          55.764672
        ],
        "type": "Point"
      },
      "properties": {
        "NAME": "Комплекс фото-видеофиксации нарушений ПДД",
        "ADDRESS": "Стрельбищенский переулок, д.27",
        "X": "37.540772",
        "Y": "55.764672",
        "NAPRAVLENIE": "в центр",
        "USLSPEED": "Проезд грузового транспорта",
        "GLOBALID": "87482881"
      },
      "type": "Feature"
    },
    {
      "geometry": {
        "coordinates": [
          37.671082,
          55.600667
        ],
        "type": "Point"
      },
      "properties": {
        "NAME": "Комплекс фото-видеофиксации нарушений ПДД",
        "ADDRESS": "Липецкая улица, д.4",
        "X": "37.671082",
        "Y": "55.600667",
        "NAPRAVLENIE": "в центр",
        "USLSPEED": "Выделенная полоса+скорость",
        "GLOBALID": "87482663"
      },
      "type": "Feature"
    },
    {
      "geometry": {
        "coordinates": [
          37.229392,
          55.98832
        ],
        "type": "Point"
      },
      "properties": {
        "NAME": "Комплекс фото-видеофиксации нарушений ПДД",
        "ADDRESS": "Сосновая аллея, напротив, корп.607",
        "X": "37.229392",
        "Y": "55.98832",
        "NAPRAVLENIE": "к Озерной аллее",
        "USLSPEED": "Скорость",
        "GLOBALID": "87482874"
      },
      "type": "Feature"
    },
    {
      "geometry": {
        "coordinates": [
          37.609666,
          55.624586
        ],
        "type": "Point"
      },
      "properties": {
        "NAME": "Комплекс фото-видеофиксации нарушений ПДД",
        "ADDRESS": "Кировоградская улица, д.10, корп.1",
        "X": "37.609666",
        "Y": "55.624586",
        "NAPRAVLENIE": "из центра",
        "USLSPEED": "Скорость",
        "GLOBALID": "87482603"
      },
      "type": "Feature"
    },
    {
      "geometry": {
        "coordinates": [
          37.587128,
          55.897614
        ],
        "type": "Point"
      },
      "properties": {
        "NAME": "Комплекс фото-видеофиксации нарушений ПДД",
        "ADDRESS": "Алтуфьевское шоссе, д.86 А",
        "X": "37.587128",
        "Y": "55.897614",
        "NAPRAVLENIE": "из центра",
        "USLSPEED": "Выделенная полоса",
        "GLOBALID": "87482421"
      },
      "type": "Feature"
    },
    {
      "geometry": {
        "coordinates": [
          37.464636,
          55.815553
        ],
        "type": "Point"
      },
      "properties": {
        "NAME": "Комплекс фото-видеофиксации нарушений ПДД",
        "ADDRESS": "Волоколамское шоссе, д.49",
        "X": "37.464636",
        "Y": "55.815553",
        "NAPRAVLENIE": "в центр",
        "USLSPEED": "Выделенная полоса",
        "GLOBALID": "87482530"
      },
      "type": "Feature"
    },
    {
      "geometry": {
        "coordinates": [
          37.427116,
          55.66126
        ],
        "type": "Point"
      },
      "properties": {
        "NAME": "Комплекс фото-видеофиксации нарушений ПДД",
        "ADDRESS": "Боровское шоссе - МКАД",
        "X": "37.427116",
        "Y": "55.66126",
        "NAPRAVLENIE": "из центра",
        "USLSPEED": "Контроль база",
        "GLOBALID": "87482470"
      },
      "type": "Feature"
    },
    {
      "geometry": {
        "coordinates": [
          37.682162,
          55.574216
        ],
        "type": "Point"
      },
      "properties": {
        "NAME": "Комплекс фото-видеофиксации нарушений ПДД",
        "ADDRESS": "Липецкая улица - МКАД",
        "X": "37.682162",
        "Y": "55.574216",
        "NAPRAVLENIE": "внутренняя сторона МКАД",
        "USLSPEED": "Контроль база",
        "GLOBALID": "87482654"
      },
      "type": "Feature"
    },
    {
      "geometry": {
        "coordinates": [
          37.637397,
          55.65534
        ],
        "type": "Point"
      },
      "properties": {
        "NAME": "Комплекс фото-видеофиксации нарушений ПДД",
        "ADDRESS": "улица Москворечье, напротив д.1",
        "X": "37.637397",
        "Y": "55.65534",
        "NAPRAVLENIE": "из центра",
        "USLSPEED": "Контроль база",
        "GLOBALID": "87482719"
      },
      "type": "Feature"
    },
    {
      "geometry": {
        "coordinates": [
          37.458036,
          55.778508
        ],
        "type": "Point"
      },
      "properties": {
        "NAME": "Комплекс фото-видеофиксации нарушений ПДД",
        "ADDRESS": "проспект Маршала Жукова, д.64, корп.1",
        "X": "37.458036",
        "Y": "55.778508",
        "NAPRAVLENIE": "из центра",
        "USLSPEED": "Выделенная полоса",
        "GLOBALID": "87482688"
      },
      "type": "Feature"
    },
    {
      "geometry": {
        "coordinates": [
          37.478661,
          55.886338
        ],
        "type": "Point"
      },
      "properties": {
        "NAME": "Комплекс фото-видеофиксации нарушений ПДД",
        "ADDRESS": "МКАД, 78 км, МГО № 124",
        "X": "37.478661",
        "Y": "55.886338",
        "NAPRAVLENIE": "внешнее кольцо МКАД",
        "USLSPEED": "Контроль база",
        "GLOBALID": "87815097"
      },
      "type": "Feature"
    },
    {
      "geometry": {
        "coordinates": [
          37.673503,
          55.893074
        ],
        "type": "Point"
      },
      "properties": {
        "NAME": "Комплекс фото-видеофиксации нарушений ПДД",
        "ADDRESS": "Осташковское шоссе - МКАД Комплекс № 1",
        "X": "37.673503",
        "Y": "55.893074",
        "NAPRAVLENIE": "в центр",
        "USLSPEED": "Контроль база",
        "GLOBALID": "87482763"
      },
      "type": "Feature"
    },
    {
      "geometry": {
        "coordinates": [
          37.633325,
          55.790764
        ],
        "type": "Point"
      },
      "properties": {
        "NAME": "Комплекс фото-видеофиксации нарушений ПДД",
        "ADDRESS": "улица Гиляровского, д.61, корп.1, по улице Трифоновская",
        "X": "37.633325",
        "Y": "55.790764",
        "NAPRAVLENIE": "в центр",
        "USLSPEED": "Проезд грузового транспорта",
        "GLOBALID": "87482547"
      },
      "type": "Feature"
    },
    {
      "geometry": {
        "coordinates": [
          37.191159,
          55.996732
        ],
        "type": "Point"
      },
      "properties": {
        "NAME": "Комплекс фото-видеофиксации нарушений ПДД",
        "ADDRESS": "Панфиловский проспект, корп.1204",
        "X": "37.191159",
        "Y": "55.996732",
        "NAPRAVLENIE": "к Ленинградскому ш.",
        "USLSPEED": "Скорость",
        "GLOBALID": "87482766"
      },
      "type": "Feature"
    },
    {
      "geometry": {
        "coordinates": [
          37.554347,
          55.774358
        ],
        "type": "Point"
      },
      "properties": {
        "NAME": "Комплекс фото-видеофиксации нарушений ПДД",
        "ADDRESS": "Никулинская улица, напротив д.5, корп.1, по Востряковскому шоссе",
        "X": "37.554347",
        "Y": "55.774358",
        "NAPRAVLENIE": "к Мичуринскому пр-ту",
        "USLSPEED": "Контроль база",
        "GLOBALID": "87482737"
      },
      "type": "Feature"
    },
    {
      "geometry": {
        "coordinates": [
          37.591382,
          55.708588
        ],
        "type": "Point"
      },
      "properties": {
        "NAME": "Комплекс фото-видеофиксации нарушений ПДД",
        "ADDRESS": "улица Вавилова, д.3 ТРЦ «Гагаринский»",
        "X": "37.591382",
        "Y": "55.708588",
        "NAPRAVLENIE": "в центр",
        "USLSPEED": "Проезд грузового транспорта",
        "GLOBALID": "87815026"
      },
      "type": "Feature"
    },
    {
      "geometry": {
        "coordinates": [
          37.798722,
          55.699647
        ],
        "type": "Point"
      },
      "properties": {
        "NAME": "Комплекс фото-видеофиксации нарушений ПДД",
        "ADDRESS": "Волгоградский проспект, д.23, стр.6, по улице Академика Скрябина",
        "X": "37.798722",
        "Y": "55.699647",
        "NAPRAVLENIE": "из центра",
        "USLSPEED": "Скорость",
        "GLOBALID": "87482523"
      },
      "type": "Feature"
    },
    {
      "geometry": {
        "coordinates": [
          37.43426,
          55.878274
        ],
        "type": "Point"
      },
      "properties": {
        "NAME": "Комплекс фото-видеофиксации нарушений ПДД",
        "ADDRESS": "улица Свободы - МКАД",
        "X": "37.43426",
        "Y": "55.878274",
        "NAPRAVLENIE": "внутренняя сторона МКАД",
        "USLSPEED": "Контроль база+скорость",
        "GLOBALID": "87482849"
      },
      "type": "Feature"
    },
    {
      "geometry": {
        "coordinates": [
          37.66601,
          55.820632
        ],
        "type": "Point"
      },
      "properties": {
        "NAME": "Комплекс фото-видеофиксации нарушений ПДД",
        "ADDRESS": "улица Бориса Галушкина, перед ж/д мостом, МГО № 60",
        "X": "37.66601",
        "Y": "55.820632",
        "NAPRAVLENIE": "от Мира пр-та",
        "USLSPEED": "Контроль база",
        "GLOBALID": "87482463"
      },
      "type": "Feature"
    },
    {
      "geometry": {
        "coordinates": [
          37.769271,
          55.761649
        ],
        "type": "Point"
      },
      "properties": {
        "NAME": "Комплекс фото-видеофиксации нарушений ПДД",
        "ADDRESS": "шоссе Энтузиастов, д.56",
        "X": "37.769271",
        "Y": "55.761649",
        "NAPRAVLENIE": "из центра",
        "USLSPEED": "Скорость",
        "GLOBALID": "87815158"
      },
      "type": "Feature"
    },
    {
      "geometry": {
        "coordinates": [
          37.815671,
          55.810976
        ],
        "type": "Point"
      },
      "properties": {
        "NAME": "Комплекс фото-видеофиксации нарушений ПДД",
        "ADDRESS": "Щелковское шоссе, д.82",
        "X": "37.815671",
        "Y": "55.810976",
        "NAPRAVLENIE": "из центра",
        "USLSPEED": "Выделенная полоса + скорость",
        "GLOBALID": "87815155"
      },
      "type": "Feature"
    },
    {
      "geometry": {
        "coordinates": [
          37.560405,
          55.675866
        ],
        "type": "Point"
      },
      "properties": {
        "NAME": "Комплекс фото-видеофиксации нарушений ПДД",
        "ADDRESS": "Профсоюзная улица, д.36, корп.1",
        "X": "37.560405",
        "Y": "55.675866",
        "NAPRAVLENIE": "из центра",
        "USLSPEED": "Выделенная полоса",
        "GLOBALID": "87482799"
      },
      "type": "Feature"
    },
    {
      "geometry": {
        "coordinates": [
          37.655339,
          55.64146
        ],
        "type": "Point"
      },
      "properties": {
        "NAME": "Комплекс фото-видеофиксации нарушений ПДД",
        "ADDRESS": "Пролетарский проспект, напротив д.19, корп.1",
        "X": "37.655339",
        "Y": "55.64146",
        "NAPRAVLENIE": "из центра",
        "USLSPEED": "Выделенная полоса",
        "GLOBALID": "87482791"
      },
      "type": "Feature"
    },
    {
      "geometry": {
        "coordinates": [
          37.548889,
          55.685817
        ],
        "type": "Point"
      },
      "properties": {
        "NAME": "Комплекс фото-видеофиксации нарушений ПДД",
        "ADDRESS": "Ломоносовский проспект, д.3, корп.1",
        "X": "37.548889",
        "Y": "55.685817",
        "NAPRAVLENIE": "от Ленинского проспекта",
        "USLSPEED": "Контроль база + скорость",
        "GLOBALID": "87815070"
      },
      "type": "Feature"
    },
    {
      "geometry": {
        "coordinates": [
          37.211401,
          55.997799
        ],
        "type": "Point"
      },
      "properties": {
        "NAME": "Комплекс фото-видеофиксации нарушений ПДД",
        "ADDRESS": "Центральный проспект, корп.302 А",
        "X": "37.211401",
        "Y": "55.997799",
        "NAPRAVLENIE": "к Панфиловскому проспекту",
        "USLSPEED": "Контроль База + скорость",
        "GLOBALID": "87815148"
      },
      "type": "Feature"
    },
    {
      "geometry": {
        "coordinates": [
          37.545342,
          55.765172
        ],
        "type": "Point"
      },
      "properties": {
        "NAME": "Комплекс фото-видеофиксации нарушений ПДД",
        "ADDRESS": "Звенигородское шоссе, д.25, стр.3",
        "X": "37.545342",
        "Y": "55.765172",
        "NAPRAVLENIE": "в центр",
        "USLSPEED": "Проезд грузового транспорта",
        "GLOBALID": "87482581"
      },
      "type": "Feature"
    },
    {
      "geometry": {
        "coordinates": [
          37.821508,
          55.812047
        ],
        "type": "Point"
      },
      "properties": {
        "NAME": "Комплекс фото-видеофиксации нарушений ПДД",
        "ADDRESS": "Щёлковское шоссе, д.90",
        "X": "37.821508",
        "Y": "55.812047",
        "NAPRAVLENIE": "из центра",
        "USLSPEED": "Выделенная полоса",
        "GLOBALID": "87482929"
      },
      "type": "Feature"
    },
    {
      "geometry": {
        "coordinates": [
          37.368159,
          55.766431
        ],
        "type": "Point"
      },
      "properties": {
        "NAME": "Комплекс фото-видеофиксации нарушений ПДД",
        "ADDRESS": "Рублево-Успенское шоссе - МКАД",
        "X": "37.368159",
        "Y": "55.766431",
        "NAPRAVLENIE": "из центра",
        "USLSPEED": "Контроль база (комплекс №1)",
        "GLOBALID": "87482822"
      },
      "type": "Feature"
    },
    {
      "geometry": {
        "coordinates": [
          37.648041,
          55.731098
        ],
        "type": "Point"
      },
      "properties": {
        "NAME": "Комплекс фото-видеофиксации нарушений ПДД",
        "ADDRESS": "Шлюзовая набережная, д.8",
        "X": "37.648041",
        "Y": "55.731098",
        "NAPRAVLENIE": "из центра",
        "USLSPEED": "Контроль база",
        "GLOBALID": "87482917"
      },
      "type": "Feature"
    },
    {
      "geometry": {
        "coordinates": [
          37.668127,
          55.729461
        ],
        "type": "Point"
      },
      "properties": {
        "NAME": "Комплекс фото-видеофиксации нарушений ПДД",
        "ADDRESS": "1-я Дубровская улица, д.2б, стр.1",
        "X": "37.668127",
        "Y": "55.729461",
        "NAPRAVLENIE": "из центра",
        "USLSPEED": "Контроль база",
        "GLOBALID": "87476399"
      },
      "type": "Feature"
    },
    {
      "geometry": {
        "coordinates": [
          37.65003,
          55.828653
        ],
        "type": "Point"
      },
      "properties": {
        "NAME": "Комплекс фото-видеофиксации нарушений ПДД",
        "ADDRESS": "проспект Мира, д.184, корп.1",
        "X": "37.65003",
        "Y": "55.828653",
        "NAPRAVLENIE": "из центра",
        "USLSPEED": "Контроль База + скорость",
        "GLOBALID": "87815075"
      },
      "type": "Feature"
    },
    {
      "geometry": {
        "coordinates": [
          37.545153,
          55.699703
        ],
        "type": "Point"
      },
      "properties": {
        "NAME": "Комплекс фото-видеофиксации нарушений ПДД",
        "ADDRESS": "проспект Вернадского, МГТ № 53",
        "X": "37.545153",
        "Y": "55.699703",
        "NAPRAVLENIE": "в центр",
        "USLSPEED": "Выделенная полоса",
        "GLOBALID": "87482501"
      },
      "type": "Feature"
    },
    {
      "geometry": {
        "coordinates": [
          37.504842,
          55.701533
        ],
        "type": "Point"
      },
      "properties": {
        "NAME": "Комплекс фото-видеофиксации нарушений ПДД",
        "ADDRESS": "Мичуринский проспект, д.20",
        "X": "37.504842",
        "Y": "55.701533",
        "NAPRAVLENIE": "из центра",
        "USLSPEED": "Выделенная полоса",
        "GLOBALID": "87482700"
      },
      "type": "Feature"
    },
    {
      "geometry": {
        "coordinates": [
          37.842675,
          55.717934
        ],
        "type": "Point"
      },
      "properties": {
        "NAME": "Комплекс фото-видеофиксации нарушений ПДД",
        "ADDRESS": "улица Молдагуловой - МКАД",
        "X": "37.842675",
        "Y": "55.717934",
        "NAPRAVLENIE": "из центра",
        "USLSPEED": "Контроль база",
        "GLOBALID": "87482712"
      },
      "type": "Feature"
    },
    {
      "geometry": {
        "coordinates": [
          37.156195,
          55.970184
        ],
        "type": "Point"
      },
      "properties": {
        "NAME": "Комплекс фото-видеофиксации нарушений ПДД",
        "ADDRESS": "проезд 657, корп.1620",
        "X": "37.156195",
        "Y": "55.970184",
        "NAPRAVLENIE": "от Каменка ул.",
        "USLSPEED": "Скорость",
        "GLOBALID": "87482777"
      },
      "type": "Feature"
    },
    {
      "geometry": {
        "coordinates": [
          37.649728,
          55.828733
        ],
        "type": "Point"
      },
      "properties": {
        "NAME": "Комплекс фото-видеофиксации нарушений ПДД",
        "ADDRESS": "проспект Мира, д.184, корп.1, выезд тоннеля",
        "X": "37.649728",
        "Y": "55.828733",
        "NAPRAVLENIE": "из центра",
        "USLSPEED": "Скорость",
        "GLOBALID": "87482697"
      },
      "type": "Feature"
    },
    {
      "geometry": {
        "coordinates": [
          37.533359,
          55.594134
        ],
        "type": "Point"
      },
      "properties": {
        "NAME": "Комплекс фото-видеофиксации нарушений ПДД",
        "ADDRESS": "проезд Карамзина - МКАД",
        "X": "37.533359",
        "Y": "55.594134",
        "NAPRAVLENIE": "в центр",
        "USLSPEED": "Контроль база",
        "GLOBALID": "87482590"
      },
      "type": "Feature"
    },
    {
      "geometry": {
        "coordinates": [
          37.616233,
          55.741283
        ],
        "type": "Point"
      },
      "properties": {
        "NAME": "Комплекс фото-видеофиксации нарушений ПДД",
        "ADDRESS": "улица Большая Полянка, д.4, корп.10",
        "X": "37.616233",
        "Y": "55.741283",
        "NAPRAVLENIE": "из центра",
        "USLSPEED": "Выделенная полоса + скорость",
        "GLOBALID": "87815018"
      },
      "type": "Feature"
    },
    {
      "geometry": {
        "coordinates": [
          37.655809,
          55.752135
        ],
        "type": "Point"
      },
      "properties": {
        "NAME": "Комплекс фото-видеофиксации нарушений ПДД",
        "ADDRESS": "улица Земляной Вал, д.48 Б",
        "X": "37.655809",
        "Y": "55.752135",
        "NAPRAVLENIE": "внутренняя сторона Садовое кольцо",
        "USLSPEED": "Скорость",
        "GLOBALID": "87482586"
      },
      "type": "Feature"
    },
    {
      "geometry": {
        "coordinates": [
          37.567692,
          55.706774
        ],
        "type": "Point"
      },
      "properties": {
        "NAME": "Комплекс фото-видеофиксации нарушений ПДД",
        "ADDRESS": "улица Косыгина, д.9",
        "X": "37.567692",
        "Y": "55.706774",
        "NAPRAVLENIE": "в центр",
        "USLSPEED": "Скорость",
        "GLOBALID": "87482615"
      },
      "type": "Feature"
    },
    {
      "geometry": {
        "coordinates": [
          37.694876,
          55.780672
        ],
        "type": "Point"
      },
      "properties": {
        "NAME": "Комплекс фото-видеофиксации нарушений ПДД",
        "ADDRESS": "Бакунинская улица, д.100",
        "X": "37.694876",
        "Y": "55.780672",
        "NAPRAVLENIE": "к ж/д мосту",
        "USLSPEED": "Контроль база",
        "GLOBALID": "87482452"
      },
      "type": "Feature"
    },
    {
      "geometry": {
        "coordinates": [
          37.712173,
          55.77345
        ],
        "type": "Point"
      },
      "properties": {
        "NAME": "Комплекс фото-видеофиксации нарушений ПДД",
        "ADDRESS": "Боровая улица, д.22/2",
        "X": "37.712173",
        "Y": "55.77345",
        "NAPRAVLENIE": "по Госпитальный Вал улице",
        "USLSPEED": "Контроль база",
        "GLOBALID": "87482469"
      },
      "type": "Feature"
    },
    {
      "geometry": {
        "coordinates": [
          37.548106,
          55.871225
        ],
        "type": "Point"
      },
      "properties": {
        "NAME": "Комплекс фото-видеофиксации нарушений ПДД",
        "ADDRESS": "Дмитровское шоссе, д.88",
        "X": "37.548106",
        "Y": "55.871225",
        "NAPRAVLENIE": "из центра",
        "USLSPEED": "Скорость",
        "GLOBALID": "87482567"
      },
      "type": "Feature"
    },
    {
      "geometry": {
        "coordinates": [
          37.402625,
          55.699019
        ],
        "type": "Point"
      },
      "properties": {
        "NAME": "Комплекс фото-видеофиксации нарушений ПДД",
        "ADDRESS": "Троекуровский проезд - МКАД",
        "X": "37.402625",
        "Y": "55.699019",
        "NAPRAVLENIE": "внутренняя сторона МКАД",
        "USLSPEED": "Контроль база",
        "GLOBALID": "87482899"
      },
      "type": "Feature"
    },
    {
      "geometry": {
        "coordinates": [
          37.674885,
          55.777927
        ],
        "type": "Point"
      },
      "properties": {
        "NAME": "Комплекс фото-видеофиксации нарушений ПДД",
        "ADDRESS": "Ольховская улица, д.49",
        "X": "37.674885",
        "Y": "55.777927",
        "NAPRAVLENIE": "в центр",
        "USLSPEED": "Проезд грузового транспорта",
        "GLOBALID": "87482757"
      },
      "type": "Feature"
    },
    {
      "geometry": {
        "coordinates": [
          37.501864,
          55.771086
        ],
        "type": "Point"
      },
      "properties": {
        "NAME": "Комплекс фото-видеофиксации нарушений ПДД",
        "ADDRESS": "Звенигородское шоссе, МГО № 55",
        "X": "37.501864",
        "Y": "55.771086",
        "NAPRAVLENIE": "из центра",
        "USLSPEED": "Выделенная полоса",
        "GLOBALID": "87482584"
      },
      "type": "Feature"
    },
    {
      "geometry": {
        "coordinates": [
          37.586811,
          55.885797
        ],
        "type": "Point"
      },
      "properties": {
        "NAME": "Комплекс фото-видеофиксации нарушений ПДД",
        "ADDRESS": "Алтуфьевское шоссе, д.64",
        "X": "37.586811",
        "Y": "55.885797",
        "NAPRAVLENIE": "из центра",
        "USLSPEED": "Выделенная полоса",
        "GLOBALID": "87482419"
      },
      "type": "Feature"
    },
    {
      "geometry": {
        "coordinates": [
          37.5408,
          55.627153
        ],
        "type": "Point"
      },
      "properties": {
        "NAME": "Комплекс фото-видеофиксации нарушений ПДД",
        "ADDRESS": "Севастопольский проспект, д.66, МГТ № 292",
        "X": "37.5408",
        "Y": "55.627153",
        "NAPRAVLENIE": "из центра",
        "USLSPEED": "Выделенная полоса",
        "GLOBALID": "87482858"
      },
      "type": "Feature"
    },
    {
      "geometry": {
        "coordinates": [
          37.773098,
          55.682055
        ],
        "type": "Point"
      },
      "properties": {
        "NAME": "Комплекс фото-видеофиксации нарушений ПДД",
        "ADDRESS": "Ставропольская улица, напротив д.70",
        "X": "37.773098",
        "Y": "55.682055",
        "NAPRAVLENIE": "к Тихорецкому б-ру",
        "USLSPEED": "Контроль база",
        "GLOBALID": "87482875"
      },
      "type": "Feature"
    },
    {
      "geometry": {
        "coordinates": [
          37.512556,
          55.787288
        ],
        "type": "Point"
      },
      "properties": {
        "NAME": "Комплекс фото-видеофиксации нарушений ПДД",
        "ADDRESS": "улица Куусинена, д.19",
        "X": "37.512556",
        "Y": "55.787288",
        "NAPRAVLENIE": "от Хорошевского ш.",
        "USLSPEED": "Скорость",
        "GLOBALID": "87482627"
      },
      "type": "Feature"
    },
    {
      "geometry": {
        "coordinates": [
          37.82963,
          55.690907
        ],
        "type": "Point"
      },
      "properties": {
        "NAME": "Комплекс фото-видеофиксации нарушений ПДД",
        "ADDRESS": "Волгоградский проспект - МКАД",
        "X": "37.82963",
        "Y": "55.690907",
        "NAPRAVLENIE": "внутренняя сторона МКАД",
        "USLSPEED": "Контроль база+скорость",
        "GLOBALID": "87482516"
      },
      "type": "Feature"
    },
    {
      "geometry": {
        "coordinates": [
          37.710102,
          55.725725
        ],
        "type": "Point"
      },
      "properties": {
        "NAME": "Комплекс фото-видеофиксации нарушений ПДД",
        "ADDRESS": "Автомобильный проезд, д.10",
        "X": "37.710102",
        "Y": "55.725725",
        "NAPRAVLENIE": "в центр",
        "USLSPEED": "Проезд грузового транспорта",
        "GLOBALID": "87482406"
      },
      "type": "Feature"
    },
    {
      "geometry": {
        "coordinates": [
          37.587339,
          55.902008
        ],
        "type": "Point"
      },
      "properties": {
        "NAME": "Комплекс фото-видеофиксации нарушений ПДД",
        "ADDRESS": "Алтуфьевское шоссе, д.96",
        "X": "37.587339",
        "Y": "55.902008",
        "NAPRAVLENIE": "из центра",
        "USLSPEED": "Выделенная полоса",
        "GLOBALID": "87482424"
      },
      "type": "Feature"
    },
    {
      "geometry": {
        "coordinates": [
          37.379239,
          55.844335
        ],
        "type": "Point"
      },
      "properties": {
        "NAME": "Комплекс фото-видеофиксации нарушений ПДД",
        "ADDRESS": "Пятницкое шоссе, д.17, стр.4",
        "X": "37.379239",
        "Y": "55.844335",
        "NAPRAVLENIE": "в центр",
        "USLSPEED": "Выделенная полоса + скорость",
        "GLOBALID": "87815115"
      },
      "type": "Feature"
    },
    {
      "geometry": {
        "coordinates": [
          37.687521,
          55.771549
        ],
        "type": "Point"
      },
      "properties": {
        "NAME": "Комплекс фото-видеофиксации нарушений ПДД",
        "ADDRESS": "Ладожская улица, напротив д.16",
        "X": "37.687521",
        "Y": "55.771549",
        "NAPRAVLENIE": "в центр",
        "USLSPEED": "Проезд грузового транспорта",
        "GLOBALID": "87482628"
      },
      "type": "Feature"
    },
    {
      "geometry": {
        "coordinates": [
          37.739022,
          55.676178
        ],
        "type": "Point"
      },
      "properties": {
        "NAME": "Комплекс фото-видеофиксации нарушений ПДД",
        "ADDRESS": "Люблинская улица, д.117/4",
        "X": "37.739022",
        "Y": "55.676178",
        "NAPRAVLENIE": "в центр",
        "USLSPEED": "Выделенная полоса",
        "GLOBALID": "87482672"
      },
      "type": "Feature"
    },
    {
      "geometry": {
        "coordinates": [
          37.672504,
          55.898051
        ],
        "type": "Point"
      },
      "properties": {
        "NAME": "Комплекс фото-видеофиксации нарушений ПДД",
        "ADDRESS": "Осташковское шоссе - МКАД",
        "X": "37.672504",
        "Y": "55.898051",
        "NAPRAVLENIE": "из центра",
        "USLSPEED": "Контроль база+скорость",
        "GLOBALID": "87482762"
      },
      "type": "Feature"
    },
    {
      "geometry": {
        "coordinates": [
          37.703589,
          55.632522
        ],
        "type": "Point"
      },
      "properties": {
        "NAME": "Комплекс фото-видеофиксации нарушений ПДД",
        "ADDRESS": "Каширское шоссе, опора МГТ № 353 (Борисовские пруды)",
        "X": "37.703589",
        "Y": "55.632522",
        "NAPRAVLENIE": "в центр",
        "USLSPEED": "Выделенная полоса + скорость",
        "GLOBALID": "87815047"
      },
      "type": "Feature"
    },
    {
      "geometry": {
        "coordinates": [
          37.663047,
          55.785603
        ],
        "type": "Point"
      },
      "properties": {
        "NAME": "Комплекс фото-видеофиксации нарушений ПДД",
        "ADDRESS": "ТТК, МГО № 0103, Верхняя Красносельская улица, д.9",
        "X": "37.663047",
        "Y": "55.785603",
        "NAPRAVLENIE": "внутреннее кольцо ТТК",
        "USLSPEED": "Контроль база",
        "GLOBALID": "87815128"
      },
      "type": "Feature"
    },
    {
      "geometry": {
        "coordinates": [
          37.505425,
          55.809778
        ],
        "type": "Point"
      },
      "properties": {
        "NAME": "Комплекс фото-видеофиксации нарушений ПДД",
        "ADDRESS": "Ленинградское шоссе, д.5",
        "X": "37.505425",
        "Y": "55.809778",
        "NAPRAVLENIE": "в центр",
        "USLSPEED": "Выделенная полоса",
        "GLOBALID": "87482633"
      },
      "type": "Feature"
    },
    {
      "geometry": {
        "coordinates": [
          37.46345,
          55.635574
        ],
        "type": "Point"
      },
      "properties": {
        "NAME": "Комплекс фото-видеофиксации нарушений ПДД",
        "ADDRESS": "Ленинский проспект - МКАД",
        "X": "37.46345",
        "Y": "55.635574",
        "NAPRAVLENIE": "внутренняя сторона МКАД",
        "USLSPEED": "Контроль база+скорость",
        "GLOBALID": "87482638"
      },
      "type": "Feature"
    },
    {
      "geometry": {
        "coordinates": [
          37.395229,
          55.704978
        ],
        "type": "Point"
      },
      "properties": {
        "NAME": "Комплекс фото-видеофиксации нарушений ПДД",
        "ADDRESS": "Сколковское шоссе - МКАД",
        "X": "37.395229",
        "Y": "55.704978",
        "NAPRAVLENIE": "внутренняя сторона МКАД",
        "USLSPEED": "Контроль база",
        "GLOBALID": "87482871"
      },
      "type": "Feature"
    },
    {
      "geometry": {
        "coordinates": [
          37.67157,
          55.597515
        ],
        "type": "Point"
      },
      "properties": {
        "NAME": "Комплекс фото-видеофиксации нарушений ПДД",
        "ADDRESS": "Липецкая ул, д.14, корп.1",
        "X": "37.67157",
        "Y": "55.597515",
        "NAPRAVLENIE": "из центра",
        "USLSPEED": "Выделенная полоса + скорость",
        "GLOBALID": "87815066"
      },
      "type": "Feature"
    },
    {
      "geometry": {
        "coordinates": [
          37.533098,
          55.870736
        ],
        "type": "Point"
      },
      "properties": {
        "NAME": "Комплекс фото-видеофиксации нарушений ПДД",
        "ADDRESS": "Коровинское шоссе, д.10",
        "X": "37.533098",
        "Y": "55.870736",
        "NAPRAVLENIE": "из центра",
        "USLSPEED": "Скорость",
        "GLOBALID": "87482612"
      },
      "type": "Feature"
    },
    {
      "geometry": {
        "coordinates": [
          37.639523,
          55.707941
        ],
        "type": "Point"
      },
      "properties": {
        "NAME": "Комплекс фото-видеофиксации нарушений ПДД",
        "ADDRESS": "Даниловская набережная, д.6, корп.3",
        "X": "37.639523",
        "Y": "55.707941",
        "NAPRAVLENIE": "в центр",
        "USLSPEED": "Скорость",
        "GLOBALID": "87482555"
      },
      "type": "Feature"
    },
    {
      "geometry": {
        "coordinates": [
          37.543551,
          55.733226
        ],
        "type": "Point"
      },
      "properties": {
        "NAME": "Комплекс фото-видеофиксации нарушений ПДД",
        "ADDRESS": "ТТК, МГО № 0782, выезд с улица Потылиха",
        "X": "37.543551",
        "Y": "55.733226",
        "NAPRAVLENIE": "внутреннее кольцо ТТК",
        "USLSPEED": "Контроль база",
        "GLOBALID": "87815134"
      },
      "type": "Feature"
    },
    {
      "geometry": {
        "coordinates": [
          37.584403,
          55.853386
        ],
        "type": "Point"
      },
      "properties": {
        "NAME": "Комплекс фото-видеофиксации нарушений ПДД",
        "ADDRESS": "Алтуфьевское шоссе, д.13, корп.2",
        "X": "37.584403",
        "Y": "55.853386",
        "NAPRAVLENIE": "в центр",
        "USLSPEED": "Выделенная полоса",
        "GLOBALID": "87482414"
      },
      "type": "Feature"
    },
    {
      "geometry": {
        "coordinates": [
          37.530931,
          55.647875
        ],
        "type": "Point"
      },
      "properties": {
        "NAME": "Комплекс фото-видеофиксации нарушений ПДД",
        "ADDRESS": "Профсоюзная улица, д.77",
        "X": "37.530931",
        "Y": "55.647875",
        "NAPRAVLENIE": "в центр",
        "USLSPEED": "Выделенная полоса",
        "GLOBALID": "87482803"
      },
      "type": "Feature"
    },
    {
      "geometry": {
        "coordinates": [
          37.366389,
          55.646114
        ],
        "type": "Point"
      },
      "properties": {
        "NAME": "Комплекс фото-видеофиксации нарушений ПДД",
        "ADDRESS": "Боровское шоссе, д.25",
        "X": "37.366389",
        "Y": "55.646114",
        "NAPRAVLENIE": "в центр",
        "USLSPEED": "Выделенная полоса+скорость",
        "GLOBALID": "87482475"
      },
      "type": "Feature"
    },
    {
      "geometry": {
        "coordinates": [
          37.476433,
          55.672132
        ],
        "type": "Point"
      },
      "properties": {
        "NAME": "Комплекс фото-видеофиксации нарушений ПДД",
        "ADDRESS": "улица Коштоянца, д.47, корп.1",
        "X": "37.476433",
        "Y": "55.672132",
        "NAPRAVLENIE": "к Лобачевского улица",
        "USLSPEED": "Контроль база",
        "GLOBALID": "87482618"
      },
      "type": "Feature"
    },
    {
      "geometry": {
        "coordinates": [
          37.565156,
          55.737808
        ],
        "type": "Point"
      },
      "properties": {
        "NAME": "Комплекс фото-видеофиксации нарушений ПДД",
        "ADDRESS": "Бережковская набережная, д.12",
        "X": "37.565156",
        "Y": "55.737808",
        "NAPRAVLENIE": "из центра",
        "USLSPEED": "Выделенная полоса",
        "GLOBALID": "87815020"
      },
      "type": "Feature"
    },
    {
      "geometry": {
        "coordinates": [
          37.684192,
          55.773397
        ],
        "type": "Point"
      },
      "properties": {
        "NAME": "Комплекс фото-видеофиксации нарушений ПДД",
        "ADDRESS": "улица Фридриха Энгельса, д.25",
        "X": "37.684192",
        "Y": "55.773397",
        "NAPRAVLENIE": "в центр",
        "USLSPEED": "Проезд грузового транспорта",
        "GLOBALID": "87482901"
      },
      "type": "Feature"
    },
    {
      "geometry": {
        "coordinates": [
          37.531053,
          55.678189
        ],
        "type": "Point"
      },
      "properties": {
        "NAME": "Комплекс фото-видеофиксации нарушений ПДД",
        "ADDRESS": "Ленинский проспект, д.89",
        "X": "37.531053",
        "Y": "55.678189",
        "NAPRAVLENIE": "из центра",
        "USLSPEED": "Выделенная полоса",
        "GLOBALID": "87482648"
      },
      "type": "Feature"
    },
    {
      "geometry": {
        "coordinates": [
          37.694722,
          55.578069
        ],
        "type": "Point"
      },
      "properties": {
        "NAME": "Комплекс фото-видеофиксации нарушений ПДД",
        "ADDRESS": "Липецкая улица - МКАД",
        "X": "37.694722",
        "Y": "55.578069",
        "NAPRAVLENIE": "внутренняя сторона МКАД",
        "USLSPEED": "Контроль база",
        "GLOBALID": "87482653"
      },
      "type": "Feature"
    },
    {
      "geometry": {
        "coordinates": [
          37.388465,
          55.851508
        ],
        "type": "Point"
      },
      "properties": {
        "NAME": "Комплекс фото-видеофиксации нарушений ПДД",
        "ADDRESS": "улица Саломеи Нерис - МКАД Путилковское шоссе",
        "X": "37.388465",
        "Y": "55.851508",
        "NAPRAVLENIE": "из центра",
        "USLSPEED": "Контроль база",
        "GLOBALID": "87482845"
      },
      "type": "Feature"
    },
    {
      "geometry": {
        "coordinates": [
          37.572372,
          55.719619
        ],
        "type": "Point"
      },
      "properties": {
        "NAME": "Комплекс фото-видеофиксации нарушений ПДД",
        "ADDRESS": "Комсомольский проспект, дублер, д.49",
        "X": "37.572372",
        "Y": "55.719619",
        "NAPRAVLENIE": "в центр",
        "USLSPEED": "Проезд грузового транспорта",
        "GLOBALID": "87482611"
      },
      "type": "Feature"
    },
    {
      "geometry": {
        "coordinates": [
          37.407892,
          55.830034
        ],
        "type": "Point"
      },
      "properties": {
        "NAME": "Комплекс фото-видеофиксации нарушений ПДД",
        "ADDRESS": "Волоколамское шоссе, д.93",
        "X": "37.407892",
        "Y": "55.830034",
        "NAPRAVLENIE": "в центр",
        "USLSPEED": "Выделенная полоса + скорость",
        "GLOBALID": "87815043"
      },
      "type": "Feature"
    },
    {
      "geometry": {
        "coordinates": [
          37.571013,
          55.789171
        ],
        "type": "Point"
      },
      "properties": {
        "NAME": "Комплекс фото-видеофиксации нарушений ПДД",
        "ADDRESS": "ТТК, МГО № 0423, улица Новая Башиловка, д.1",
        "X": "37.571013",
        "Y": "55.789171",
        "NAPRAVLENIE": "внутреннее кольцо ТТК",
        "USLSPEED": "Контроль база",
        "GLOBALID": "87815142"
      },
      "type": "Feature"
    },
    {
      "geometry": {
        "coordinates": [
          37.71888,
          55.731553
        ],
        "type": "Point"
      },
      "properties": {
        "NAME": "Комплекс фото-видеофиксации нарушений ПДД",
        "ADDRESS": "Нижегородская улица, д.86, корп.А",
        "X": "37.71888",
        "Y": "55.731553",
        "NAPRAVLENIE": "из центра",
        "USLSPEED": "Скорость",
        "GLOBALID": "87482733"
      },
      "type": "Feature"
    },
    {
      "geometry": {
        "coordinates": [
          37.854755,
          55.676762
        ],
        "type": "Point"
      },
      "properties": {
        "NAME": "Комплекс фото-видеофиксации нарушений ПДД",
        "ADDRESS": "Волгоградский проспект - МКАД",
        "X": "37.854755",
        "Y": "55.676762",
        "NAPRAVLENIE": "из центра",
        "USLSPEED": "Контроль база+скорость",
        "GLOBALID": "87482518"
      },
      "type": "Feature"
    },
    {
      "geometry": {
        "coordinates": [
          37.401413,
          55.831371
        ],
        "type": "Point"
      },
      "properties": {
        "NAME": "Комплекс фото-видеофиксации нарушений ПДД",
        "ADDRESS": "Волоколамское шоссе - МКАД",
        "X": "37.401413",
        "Y": "55.831371",
        "NAPRAVLENIE": "в центр",
        "USLSPEED": "Контроль база",
        "GLOBALID": "87482526"
      },
      "type": "Feature"
    },
    {
      "geometry": {
        "coordinates": [
          37.379935,
          55.72598
        ],
        "type": "Point"
      },
      "properties": {
        "NAME": "Комплекс фото-видеофиксации нарушений ПДД",
        "ADDRESS": "улица Горбунова - МКАД",
        "X": "37.379935",
        "Y": "55.72598",
        "NAPRAVLENIE": "внутренняя сторона МКАД",
        "USLSPEED": "Контроль база",
        "GLOBALID": "87482550"
      },
      "type": "Feature"
    },
    {
      "geometry": {
        "coordinates": [
          37.460761,
          55.817019
        ],
        "type": "Point"
      },
      "properties": {
        "NAME": "Комплекс фото-видеофиксации нарушений ПДД",
        "ADDRESS": "Волоколамское шоссе, д.80",
        "X": "37.460761",
        "Y": "55.817019",
        "NAPRAVLENIE": "из центра",
        "USLSPEED": "Выделенная полоса+скорость",
        "GLOBALID": "87482532"
      },
      "type": "Feature"
    },
    {
      "geometry": {
        "coordinates": [
          37.451456,
          55.854717
        ],
        "type": "Point"
      },
      "properties": {
        "NAME": "Комплекс фото-видеофиксации нарушений ПДД",
        "ADDRESS": "улица Свободы, д.63",
        "X": "37.451456",
        "Y": "55.854717",
        "NAPRAVLENIE": "в центр",
        "USLSPEED": "Скорость",
        "GLOBALID": "87482851"
      },
      "type": "Feature"
    },
    {
      "geometry": {
        "coordinates": [
          37.539259,
          55.741423
        ],
        "type": "Point"
      },
      "properties": {
        "NAME": "Комплекс фото-видеофиксации нарушений ПДД",
        "ADDRESS": "Кутузовский проспект, д.33",
        "X": "37.539259",
        "Y": "55.741423",
        "NAPRAVLENIE": "в центр",
        "USLSPEED": "Проезд грузового транспорта + скорость",
        "GLOBALID": "87482625"
      },
      "type": "Feature"
    },
    {
      "geometry": {
        "coordinates": [
          37.36956,
          55.773031
        ],
        "type": "Point"
      },
      "properties": {
        "NAME": "Комплекс фото-видеофиксации нарушений ПДД",
        "ADDRESS": "Рублево-Успенское шоссе - МКАД",
        "X": "37.36956",
        "Y": "55.773031",
        "NAPRAVLENIE": "внутренняя сторона МКАД",
        "USLSPEED": "Контроль база+скорость",
        "GLOBALID": "87482821"
      },
      "type": "Feature"
    },
    {
      "geometry": {
        "coordinates": [
          37.513271,
          55.777758
        ],
        "type": "Point"
      },
      "properties": {
        "NAME": "Комплекс фото-видеофиксации нарушений ПДД",
        "ADDRESS": "Хорошёвское шоссе, д.1, стр.2, по улице Зорге",
        "X": "37.513271",
        "Y": "55.777758",
        "NAPRAVLENIE": "из центра",
        "USLSPEED": "Контроль база",
        "GLOBALID": "87482912"
      },
      "type": "Feature"
    },
    {
      "geometry": {
        "coordinates": [
          37.559692,
          55.644447
        ],
        "type": "Point"
      },
      "properties": {
        "NAME": "Комплекс фото-видеофиксации нарушений ПДД",
        "ADDRESS": "Севастопольский проспект, напротив д.54",
        "X": "37.559692",
        "Y": "55.644447",
        "NAPRAVLENIE": "в центр",
        "USLSPEED": "Скорость",
        "GLOBALID": "87482862"
      },
      "type": "Feature"
    },
    {
      "geometry": {
        "coordinates": [
          37.369863,
          55.784645
        ],
        "type": "Point"
      },
      "properties": {
        "NAME": "Комплекс фото-видеофиксации нарушений ПДД",
        "ADDRESS": "проспект Маршала Жукова - МКАД",
        "X": "37.369863",
        "Y": "55.784645",
        "NAPRAVLENIE": "внутренняя сторона МКАД",
        "USLSPEED": "Контроль база+скорость",
        "GLOBALID": "87482685"
      },
      "type": "Feature"
    },
    {
      "geometry": {
        "coordinates": [
          37.550975,
          55.730592
        ],
        "type": "Point"
      },
      "properties": {
        "NAME": "Комплекс фото-видеофиксации нарушений ПДД",
        "ADDRESS": "Бережковская набережная, напротив д.22",
        "X": "37.550975",
        "Y": "55.730592",
        "NAPRAVLENIE": "в центр",
        "USLSPEED": "Выделенная полоса",
        "GLOBALID": "87815021"
      },
      "type": "Feature"
    },
    {
      "geometry": {
        "coordinates": [
          37.614081,
          55.711293
        ],
        "type": "Point"
      },
      "properties": {
        "NAME": "Комплекс фото-видеофиксации нарушений ПДД",
        "ADDRESS": "улица Серпуховский Вал, д.13",
        "X": "37.614081",
        "Y": "55.711293",
        "NAPRAVLENIE": "к Серпуховской заставы пл.",
        "USLSPEED": "Контроль база",
        "GLOBALID": "87482864"
      },
      "type": "Feature"
    },
    {
      "geometry": {
        "coordinates": [
          37.672503,
          55.593572
        ],
        "type": "Point"
      },
      "properties": {
        "NAME": "Комплекс фото-видеофиксации нарушений ПДД",
        "ADDRESS": "Липецкая улица, д.20",
        "X": "37.672503",
        "Y": "55.593572",
        "NAPRAVLENIE": "из центра",
        "USLSPEED": "Выделенная полоса",
        "GLOBALID": "87482655"
      },
      "type": "Feature"
    },
    {
      "geometry": {
        "coordinates": [
          37.657384,
          55.572271
        ],
        "type": "Point"
      },
      "properties": {
        "NAME": "Комплекс фото-видеофиксации нарушений ПДД",
        "ADDRESS": "Востряковский проезд - МКАД",
        "X": "37.657384",
        "Y": "55.572271",
        "NAPRAVLENIE": "внешняя сторона МКАД",
        "USLSPEED": "Контроль база",
        "GLOBALID": "87482541"
      },
      "type": "Feature"
    },
    {
      "geometry": {
        "coordinates": [
          37.392058,
          55.813918
        ],
        "type": "Point"
      },
      "properties": {
        "NAME": "Комплекс фото-видеофиксации нарушений ПДД",
        "ADDRESS": "улица Маршала Катукова - МКАД Неманский проезд, д.4к2",
        "X": "37.392058",
        "Y": "55.813918",
        "NAPRAVLENIE": "в центр",
        "USLSPEED": "Контроль база",
        "GLOBALID": "87482692"
      },
      "type": "Feature"
    },
    {
      "geometry": {
        "coordinates": [
          37.480886,
          55.811494
        ],
        "type": "Point"
      },
      "properties": {
        "NAME": "Комплекс фото-видеофиксации нарушений ПДД",
        "ADDRESS": "Волоколамское шоссе, МГТ № 85",
        "X": "37.480886",
        "Y": "55.811494",
        "NAPRAVLENIE": "в центр",
        "USLSPEED": "Выделенная полоса+скорость",
        "GLOBALID": "87482534"
      },
      "type": "Feature"
    },
    {
      "geometry": {
        "coordinates": [
          37.623104,
          55.781168
        ],
        "type": "Point"
      },
      "properties": {
        "NAME": "Комплекс фото-видеофиксации нарушений ПДД",
        "ADDRESS": "Олимпийский проспект, напротив д.16, стр.1",
        "X": "37.623104",
        "Y": "55.781168",
        "NAPRAVLENIE": "в центр",
        "USLSPEED": "Скорость",
        "GLOBALID": "87482756"
      },
      "type": "Feature"
    },
    {
      "geometry": {
        "coordinates": [
          37.312805,
          55.4648
        ],
        "type": "Point"
      },
      "properties": {
        "NAME": "Комплекс фото-видеофиксации нарушений ПДД",
        "ADDRESS": "Звенигородское шоссе, МГО № 44",
        "X": "37.312805",
        "Y": "55.4648",
        "NAPRAVLENIE": "из центра",
        "USLSPEED": "Скорость",
        "GLOBALID": "87482583"
      },
      "type": "Feature"
    },
    {
      "geometry": {
        "coordinates": [
          37.649234,
          55.573134
        ],
        "type": "Point"
      },
      "properties": {
        "NAME": "Комплекс фото-видеофиксации нарушений ПДД",
        "ADDRESS": "Востряковский проезд - МКАД",
        "X": "37.649234",
        "Y": "55.573134",
        "NAPRAVLENIE": "внутренняя сторона МКАД",
        "USLSPEED": "Контроль база",
        "GLOBALID": "87482542"
      },
      "type": "Feature"
    },
    {
      "geometry": {
        "coordinates": [
          37.515519,
          55.659184
        ],
        "type": "Point"
      },
      "properties": {
        "NAME": "Комплекс фото-видеофиксации нарушений ПДД",
        "ADDRESS": "улица Обручева, д.13 Б",
        "X": "37.515519",
        "Y": "55.659184",
        "NAPRAVLENIE": "к Ленинскому пр-ту",
        "USLSPEED": "Выделенная полоса",
        "GLOBALID": "87815108"
      },
      "type": "Feature"
    },
    {
      "geometry": {
        "coordinates": [
          37.543212,
          55.53847
        ],
        "type": "Point"
      },
      "properties": {
        "NAME": "Комплекс фото-видеофиксации нарушений ПДД",
        "ADDRESS": "Чечёрский проезд, д.22",
        "X": "37.543212",
        "Y": "55.53847",
        "NAPRAVLENIE": "из центра",
        "USLSPEED": "Скорость",
        "GLOBALID": "87482916"
      },
      "type": "Feature"
    },
    {
      "geometry": {
        "coordinates": [
          37.742878,
          55.63663
        ],
        "type": "Point"
      },